{"type": "FeatureCollection", "features": [{"geometry": {"type": "Point", "coordinates": [-85.73861099999999, 37.571111]}, "type": "Feature", "properties": {"en_curid": 307, "name": "Abraham Lincoln", "birth": "Hodgenville, United States (1809 AC)", "country": "United States", "continent": "North America", "domain": 4, "occupation": "Politician", "hpi": 27.93858549}}, {"geometry": {"type": "Point", "coordinates": [23.5, 40.333333]}, "type": "Feature", "properties": {"en_curid": 308, "name": "Aristotle", "birth": "Stageira, Greece (384 BC)", "country": "Greece", "continent": "Europe", "domain": 3, "occupation": "Philosopher", "hpi": 31.99379508}}, {"geometry": {"type": "Point", "coordinates": [30.3, 59.95]}, "type": "Feature", "properties": {"en_curid": 339, "name": "Ayn Rand", "birth": "Saint Petersburg, Russia (1905 AC)", "country": "Russia", "continent": "Europe", "domain": 3, "occupation": "Writer", "hpi": 24.32593556}}, {"geometry": {"type": "Point", "coordinates": [-115.173851, 36.121514000000005]}, "type": "Feature", "properties": {"en_curid": 595, "name": "Andre Agassi", "birth": "Las Vegas, United States (1970 AC)", "country": "United States", "continent": "North America", "domain": 7, "occupation": "Tennis Player", "hpi": 20.92599929}}, {"geometry": {"type": "Point", "coordinates": [-0.61, 51.185]}, "type": "Feature", "properties": {"en_curid": 628, "name": "Aldous Huxley", "birth": "Godalming, United Kingdom (1894 AC)", "country": "United Kingdom", "continent": "Europe", "domain": 3, "occupation": "Writer", "hpi": 25.99660548}}, {"geometry": {"type": "Point", "coordinates": [100.0, 60.0]}, "type": "Feature", "properties": {"en_curid": 676, "name": "Andrei Tarkovsky", "birth": "Zavrazhye, Russia (1932 AC)", "country": "Russia", "continent": "Europe", "domain": 0, "occupation": "Film Director", "hpi": 25.24470117}}, {"geometry": {"type": "Point", "coordinates": [18.633333, 54.35]}, "type": "Feature", "properties": {"en_curid": 700, "name": "Arthur Schopenhauer", "birth": "Gda\u0144sk, Poland (1788 AC)", "country": "Poland", "continent": "Europe", "domain": 3, "occupation": "Philosopher", "hpi": 27.776019899999998}}, {"geometry": {"type": "Point", "coordinates": [9.983333, 48.4]}, "type": "Feature", "properties": {"en_curid": 736, "name": "Albert Einstein", "birth": "Ulm, Germany (1879 AC)", "country": "Germany", "continent": "Europe", "domain": 6, "occupation": "Physicist", "hpi": 30.21061426}}, {"geometry": {"type": "Point", "coordinates": [22.516667, 40.8]}, "type": "Feature", "properties": {"en_curid": 783, "name": "Alexander the Great", "birth": "Pella, Greece (356 BC)", "country": "Greece", "continent": "Europe", "domain": 4, "occupation": "Military Personnel", "hpi": 31.58395203}}, {"geometry": {"type": "Point", "coordinates": [0.01, 51.568999999999996]}, "type": "Feature", "properties": {"en_curid": 808, "name": "Alfred Hitchcock", "birth": "Leytonstone, United Kingdom (1899 AC)", "country": "United Kingdom", "continent": "Europe", "domain": 0, "occupation": "Film Director", "hpi": 27.17598213}}, {"geometry": {"type": "Point", "coordinates": [20.0, 47.0]}, "type": "Feature", "properties": {"en_curid": 841, "name": "Attila the Hun", "birth": "Hajd\u00fab\u00f6sz\u00f6rm\u00e9ny, Hungary (406 AC)", "country": "Hungary", "continent": "Europe", "domain": 4, "occupation": "Politician", "hpi": 29.24332716}}, {"geometry": {"type": "Point", "coordinates": [18.068610999999997, 59.329443999999995]}, "type": "Feature", "properties": {"en_curid": 851, "name": "Alfred Nobel", "birth": "Stockholm, Sweden (1833 AC)", "country": "Sweden", "continent": "Europe", "domain": 6, "occupation": "Chemist", "hpi": 27.64615987}}, {"geometry": {"type": "Point", "coordinates": [-3.188889, 55.953056000000004]}, "type": "Feature", "properties": {"en_curid": 852, "name": "Alexander Graham Bell", "birth": "Edinburgh, United Kingdom (1847 AC)", "country": "United Kingdom", "continent": "Europe", "domain": 6, "occupation": "Inventor", "hpi": 26.92276279}}, {"geometry": {"type": "Point", "coordinates": [-79.976389, 40.439721999999996]}, "type": "Feature", "properties": {"en_curid": 864, "name": "Andy Warhol", "birth": "Pittsburgh, United States (1928 AC)", "country": "United States", "continent": "North America", "domain": 0, "occupation": "Artist", "hpi": 27.91983828}}, {"geometry": {"type": "Point", "coordinates": [0.0, -75.0]}, "type": "Feature", "properties": {"en_curid": 868, "name": "Alp Arslan", "birth": "Other, Unknown (1029 AC)", "country": "Unknown", "continent": "Unknown", "domain": 4, "occupation": "Politician", "hpi": 25.74359669}}, {"geometry": {"type": "Point", "coordinates": [139.73333300000002, 35.6]}, "type": "Feature", "properties": {"en_curid": 872, "name": "Akira Kurosawa", "birth": "Tokyo, Japan (1910 AC)", "country": "Japan", "continent": "Asia", "domain": 0, "occupation": "Film Director", "hpi": 26.23577062}}, {"geometry": {"type": "Point", "coordinates": [37.616667, 55.75]}, "type": "Feature", "properties": {"en_curid": 890, "name": "Anna Kournikova", "birth": "Moscow, Russia (1981 AC)", "country": "Russia", "continent": "Europe", "domain": 7, "occupation": "Tennis Player", "hpi": 18.37364131}}, {"geometry": {"type": "Point", "coordinates": [39.7, 54.6]}, "type": "Feature", "properties": {"en_curid": 915, "name": "Andrey Markov", "birth": "Ryazan, Russia (1856 AC)", "country": "Russia", "continent": "Europe", "domain": 6, "occupation": "Mathematician", "hpi": 22.28780154}}, {"geometry": {"type": "Point", "coordinates": [-0.1744, 51.5541]}, "type": "Feature", "properties": {"en_curid": 924, "name": "A. A. Milne", "birth": "Hampstead, United Kingdom (1882 AC)", "country": "United Kingdom", "continent": "Europe", "domain": 3, "occupation": "Writer", "hpi": 23.13392116}}, {"geometry": {"type": "Point", "coordinates": [-76.00694399999999, 43.862221999999996]}, "type": "Feature", "properties": {"en_curid": 81898, "name": "Melvil Dewey", "birth": "Adams Center, United States (1851 AC)", "country": "United States", "continent": "North America", "domain": 6, "occupation": "Inventor", "hpi": 22.453874600000002}}, {"geometry": {"type": "Point", "coordinates": [8.469167, 49.488889]}, "type": "Feature", "properties": {"en_curid": 954, "name": "Albert Speer", "birth": "Mannheim, Germany (1905 AC)", "country": "Germany", "continent": "Europe", "domain": 0, "occupation": "Architect", "hpi": 25.99869344}}, {"geometry": {"type": "Point", "coordinates": [-0.1275, 51.507222]}, "type": "Feature", "properties": {"en_curid": 974, "name": "Ada Lovelace", "birth": "London, United Kingdom (1815 AC)", "country": "United Kingdom", "continent": "Europe", "domain": 6, "occupation": "Mathematician", "hpi": 24.19188341}}, {"geometry": {"type": "Point", "coordinates": [7.75, 36.683333000000005]}, "type": "Feature", "properties": {"en_curid": 983, "name": "Albert Camus", "birth": "Dr\u00e9an, Algeria (1913 AC)", "country": "Algeria", "continent": "Africa", "domain": 3, "occupation": "Writer", "hpi": 26.68507129}}, {"geometry": {"type": "Point", "coordinates": [-3.5305, 50.4792]}, "type": "Feature", "properties": {"en_curid": 984, "name": "Agatha Christie", "birth": "Torquay, United Kingdom (1890 AC)", "country": "United Kingdom", "continent": "Europe", "domain": 3, "occupation": "Writer", "hpi": 27.09011545}}, {"geometry": {"type": "Point", "coordinates": [30.0, 27.0]}, "type": "Feature", "properties": {"en_curid": 1006, "name": "Aaron", "birth": "Other, Egypt (1400 BC)", "country": "Egypt", "continent": "Africa", "domain": 4, "occupation": "Religious Figure", "hpi": 27.60209372}}, {"geometry": {"type": "Point", "coordinates": [-74.172574, 40.72422]}, "type": "Feature", "properties": {"en_curid": 1017, "name": "Allen Ginsberg", "birth": "Newark, United States (1926 AC)", "country": "United States", "continent": "North America", "domain": 3, "occupation": "Writer", "hpi": 24.90590029}}, {"geometry": {"type": "Point", "coordinates": [59.666667000000004, 55.166667000000004]}, "type": "Feature", "properties": {"en_curid": 1020, "name": "Anatoly Karpov", "birth": "Zlatoust, Russia (1951 AC)", "country": "Russia", "continent": "Europe", "domain": 7, "occupation": "Chessmaster", "hpi": 22.97518017}}, {"geometry": {"type": "Point", "coordinates": [23.71666667, 37.96666667]}, "type": "Feature", "properties": {"en_curid": 1028, "name": "Aristophanes", "birth": "Athens, Greece (446 BC)", "country": "Greece", "continent": "Europe", "domain": 3, "occupation": "Writer", "hpi": 28.72133392}}, {"geometry": {"type": "Point", "coordinates": [7.2614, 48.1394]}, "type": "Feature", "properties": {"en_curid": 1029, "name": "Albert Schweitzer", "birth": "Kaysersberg, France (1875 AC)", "country": "France", "continent": "Europe", "domain": 6, "occupation": "Physician", "hpi": 26.49885332}}, {"geometry": {"type": "Point", "coordinates": [4.8, 45.73]}, "type": "Feature", "properties": {"en_curid": 1051, "name": "Alexis Carrel", "birth": "Sainte-Foy-l\u00e8s-Lyon, France (1873 AC)", "country": "France", "continent": "Europe", "domain": 6, "occupation": "Physician", "hpi": 24.22920885}}, {"geometry": {"type": "Point", "coordinates": [2.3508, 48.8567]}, "type": "Feature", "properties": {"en_curid": 1057, "name": "Anatole France", "birth": "Paris, France (1844 AC)", "country": "France", "continent": "Europe", "domain": 3, "occupation": "Writer", "hpi": 26.31231176}}, {"geometry": {"type": "Point", "coordinates": [2.3508, 48.8567]}, "type": "Feature", "properties": {"en_curid": 1058, "name": "Andr\u00e9 Gide", "birth": "Paris, France (1869 AC)", "country": "France", "continent": "Europe", "domain": 3, "occupation": "Writer", "hpi": 26.52855152}}, {"geometry": {"type": "Point", "coordinates": [64.43333299999999, 39.766667]}, "type": "Feature", "properties": {"en_curid": 1130, "name": "Avicenna", "birth": "Bukhara, Uzbekistan (980 AC)", "country": "Uzbekistan", "continent": "Asia", "domain": 3, "occupation": "Philosopher", "hpi": 28.89172648}}, {"geometry": {"type": "Point", "coordinates": [0.5303, 49.0094]}, "type": "Feature", "properties": {"en_curid": 1141, "name": "Augustin-Jean Fresnel", "birth": "Broglie, France (1788 AC)", "country": "France", "continent": "Europe", "domain": 6, "occupation": "Physicist", "hpi": 24.88926142}}, {"geometry": {"type": "Point", "coordinates": [27.278333, 37.530278]}, "type": "Feature", "properties": {"en_curid": 1168, "name": "Anaximander", "birth": "Miletus, Turkey (610 BC)", "country": "Turkey", "continent": "Asia", "domain": 3, "occupation": "Philosopher", "hpi": 28.12119429}}, {"geometry": {"type": "Point", "coordinates": [-1.537, 52.292]}, "type": "Feature", "properties": {"en_curid": 1177, "name": "Aleister Crowley", "birth": "Royal Leamington Spa, United Kingdom (1875 AC)", "country": "United Kingdom", "continent": "Europe", "domain": 4, "occupation": "Religious Figure", "hpi": 26.74577909}}, {"geometry": {"type": "Point", "coordinates": [-0.1899, 51.5274]}, "type": "Feature", "properties": {"en_curid": 1208, "name": "Alan Turing", "birth": "Maida Vale, United Kingdom (1912 AC)", "country": "United Kingdom", "continent": "Europe", "domain": 6, "occupation": "Computer Scientist", "hpi": 24.98917589}}, {"geometry": {"type": "Point", "coordinates": [-3.679711, 56.647558]}, "type": "Feature", "properties": {"en_curid": 1235, "name": "Alexander Mackenzie", "birth": "Logierait, United Kingdom (1822 AC)", "country": "United Kingdom", "continent": "Europe", "domain": 4, "occupation": "Politician", "hpi": 19.04029498}}, {"geometry": {"type": "Point", "coordinates": [77.0, 20.0]}, "type": "Feature", "properties": {"en_curid": 1239, "name": "Ashoka", "birth": "Patna, India (304 BC)", "country": "India", "continent": "Asia", "domain": 4, "occupation": "Politician", "hpi": 26.73672242}}, {"geometry": {"type": "Point", "coordinates": [-99.133333, 19.433332999999998]}, "type": "Feature", "properties": {"en_curid": 1247, "name": "Alfonso Cuar\u00f3n", "birth": "Mexico City, Mexico (1961 AC)", "country": "Mexico", "continent": "North America", "domain": 0, "occupation": "Film Director", "hpi": 18.87219943}}, {"geometry": {"type": "Point", "coordinates": [12.69758, 41.674696000000004]}, "type": "Feature", "properties": {"en_curid": 1256, "name": "Antoninus Pius", "birth": "Lanuvium, Italy (86 AC)", "country": "Italy", "continent": "Europe", "domain": 4, "occupation": "Politician", "hpi": 27.77668848}}, {"geometry": {"type": "Point", "coordinates": [12.5, 41.9]}, "type": "Feature", "properties": {"en_curid": 1273, "name": "Augustus", "birth": "Rome, Italy (63 BC)", "country": "Italy", "continent": "Europe", "domain": 4, "occupation": "Politician", "hpi": 30.41951894}}, {"geometry": {"type": "Point", "coordinates": [4.84, 45.76]}, "type": "Feature", "properties": {"en_curid": 1363, "name": "Andr\u00e9-Marie Amp\u00e8re", "birth": "Lyon, France (1775 AC)", "country": "France", "continent": "Europe", "domain": 6, "occupation": "Physicist", "hpi": 26.77275072}}, {"geometry": {"type": "Point", "coordinates": [6.633333, 49.75]}, "type": "Feature", "properties": {"en_curid": 1370, "name": "Ambrose", "birth": "Trier, Germany (337 AC)", "country": "Germany", "continent": "Europe", "domain": 4, "occupation": "Religious Figure", "hpi": 26.86852989}}, {"geometry": {"type": "Point", "coordinates": [35.26062, 32.14306]}, "type": "Feature", "properties": {"en_curid": 1389, "name": "Ahab", "birth": "Samaria, Israel (900 BC)", "country": "Israel", "continent": "Asia", "domain": 4, "occupation": "Politician", "hpi": 25.27555813}}, {"geometry": {"type": "Point", "coordinates": [-1.080278, 53.958332999999996]}, "type": "Feature", "properties": {"en_curid": 1408, "name": "Alcuin", "birth": "York, United Kingdom (735 AC)", "country": "United Kingdom", "continent": "Europe", "domain": 3, "occupation": "Philosopher", "hpi": 25.82465838}}, {"geometry": {"type": "Point", "coordinates": [12.335833000000001, 45.4375]}, "type": "Feature", "properties": {"en_curid": 1425, "name": "Antonio Vivaldi", "birth": "Venice, Italy (1678 AC)", "country": "Italy", "continent": "Europe", "domain": 0, "occupation": "Composer", "hpi": 27.8898214}}, {"geometry": {"type": "Point", "coordinates": [43.5, 33.7]}, "type": "Feature", "properties": {"en_curid": 1436, "name": "Abraham", "birth": "Other, Unknown (1800 BC)", "country": "Unknown", "continent": "Unknown", "domain": 4, "occupation": "Religious Figure", "hpi": 30.60465403}}, {"geometry": {"type": "Point", "coordinates": [35.095, 31.533333000000002]}, "type": "Feature", "properties": {"en_curid": 1438, "name": "Absalom", "birth": "Jerusalem, Palestine (3500 BC)", "country": "Palestine", "continent": "Asia", "domain": 4, "occupation": "Religious Figure", "hpi": 26.11354202}}, {"geometry": {"type": "Point", "coordinates": [-2.9041669999999997, 51.695833]}, "type": "Feature", "properties": {"en_curid": 1494, "name": "Alfred Russel Wallace", "birth": "Llanbadoc, United Kingdom (1823 AC)", "country": "United Kingdom", "continent": "Europe", "domain": 6, "occupation": "Biologist", "hpi": 25.03659519}}, {"geometry": {"type": "Point", "coordinates": [10.583333, 49.3]}, "type": "Feature", "properties": {"en_curid": 1514, "name": "Albert I, Duke of Prussia", "birth": "Ansbach, Germany (1490 AC)", "country": "Germany", "continent": "Europe", "domain": 4, "occupation": "Nobleman", "hpi": 23.04134854}}, {"geometry": {"type": "Point", "coordinates": [27.422221999999998, 38.630556]}, "type": "Feature", "properties": {"en_curid": 1527, "name": "Ahmed I", "birth": "Manisa, Turkey (1590 AC)", "country": "Turkey", "continent": "Asia", "domain": 4, "occupation": "Politician", "hpi": 24.96249107}}, {"geometry": {"type": "Point", "coordinates": [28.984, 41.013000000000005]}, "type": "Feature", "properties": {"en_curid": 1528, "name": "Ahmed II", "birth": "Istanbul, Turkey (1643 AC)", "country": "Turkey", "continent": "Asia", "domain": 4, "occupation": "Politician", "hpi": 24.41043518}}, {"geometry": {"type": "Point", "coordinates": [27.833333000000003, 43.566666999999995]}, "type": "Feature", "properties": {"en_curid": 1529, "name": "Ahmed III", "birth": "Constanta, Bulgaria (1673 AC)", "country": "Bulgaria", "continent": "Europe", "domain": 4, "occupation": "Politician", "hpi": 24.55621575}}, {"geometry": {"type": "Point", "coordinates": [22.423610999999998, 37.081944]}, "type": "Feature", "properties": {"en_curid": 1550, "name": "Agesilaus II", "birth": "Sparta, Greece (444 BC)", "country": "Greece", "continent": "Europe", "domain": 4, "occupation": "Politician", "hpi": 25.1741122}}, {"geometry": {"type": "Point", "coordinates": [6.9527779999999995, 50.936389]}, "type": "Feature", "properties": {"en_curid": 1557, "name": "Agrippina the Younger", "birth": "Cologne, Germany (15 AC)", "country": "Germany", "continent": "Europe", "domain": 4, "occupation": "Politician", "hpi": 26.37543304}}, {"geometry": {"type": "Point", "coordinates": [62.203056000000004, 34.341944]}, "type": "Feature", "properties": {"en_curid": 1560, "name": "Ahmed Shah Abdali", "birth": "Herat, Afghanistan (1722 AC)", "country": "Afghanistan", "continent": "Asia", "domain": 4, "occupation": "Politician", "hpi": 22.49586619}}, {"geometry": {"type": "Point", "coordinates": [25.0, 46.0]}, "type": "Feature", "properties": {"en_curid": 1570, "name": "Alaric I", "birth": "Peuce Island, Romania (370 AC)", "country": "Romania", "continent": "Europe", "domain": 4, "occupation": "Politician", "hpi": 26.82538974}}, {"geometry": {"type": "Point", "coordinates": [25.0, 46.0]}, "type": "Feature", "properties": {"en_curid": 1571, "name": "Alaric II", "birth": "Tulcea, Romania (450 AC)", "country": "Romania", "continent": "Europe", "domain": 4, "occupation": "Politician", "hpi": 25.07184306}}, {"geometry": {"type": "Point", "coordinates": [10.433333, 48.566666999999995]}, "type": "Feature", "properties": {"en_curid": 1573, "name": "Albertus Magnus", "birth": "Lauingen, Germany (1193 AC)", "country": "Germany", "continent": "Europe", "domain": 4, "occupation": "Religious Figure", "hpi": 26.75354666}}, {"geometry": {"type": "Point", "coordinates": [19.02, 44.9]}, "type": "Feature", "properties": {"en_curid": 1575, "name": "Alboin", "birth": "Pannonia, Hungary (530 AC)", "country": "Hungary", "continent": "Europe", "domain": 4, "occupation": "Politician", "hpi": 23.92192554}}, {"geometry": {"type": "Point", "coordinates": [-8.983333, 38.95]}, "type": "Feature", "properties": {"en_curid": 1576, "name": "Afonso de Albuquerque", "birth": "Vila Franca de Xira, Portugal (1453 AC)", "country": "Portugal", "continent": "Europe", "domain": 4, "occupation": "Nobleman", "hpi": 24.36005082}}, {"geometry": {"type": "Point", "coordinates": [26.55, 39.1]}, "type": "Feature", "properties": {"en_curid": 1577, "name": "Alcaeus", "birth": "Mytilene, Greece (620 BC)", "country": "Greece", "continent": "Europe", "domain": 3, "occupation": "Writer", "hpi": 25.98267397}}, {"geometry": {"type": "Point", "coordinates": [27.139166999999997, 38.418611]}, "type": "Feature", "properties": {"en_curid": 1586, "name": "Alexander Balas", "birth": "Izmir, Turkey (200 BC)", "country": "Turkey", "continent": "Asia", "domain": 4, "occupation": "Politician", "hpi": 24.17935199}}, {"geometry": {"type": "Point", "coordinates": [100.0, 60.0]}, "type": "Feature", "properties": {"en_curid": 1591, "name": "Alexander II of Russia", "birth": "Moscow, Russia (1818 AC)", "country": "Russia", "continent": "Europe", "domain": 4, "occupation": "Politician", "hpi": 26.18597625}}, {"geometry": {"type": "Point", "coordinates": [30.3, 59.95]}, "type": "Feature", "properties": {"en_curid": 1592, "name": "Alexander III of Russia", "birth": "Saint Petersburg, Russia (1845 AC)", "country": "Russia", "continent": "Europe", "domain": 4, "occupation": "Politician", "hpi": 25.89702144}}, {"geometry": {"type": "Point", "coordinates": [-3.4393, 56.07192]}, "type": "Feature", "properties": {"en_curid": 1593, "name": "Alexander I of Scotland", "birth": "Dunfermline, United Kingdom (1078 AC)", "country": "United Kingdom", "continent": "Europe", "domain": 4, "occupation": "Politician", "hpi": 22.69274299}}, {"geometry": {"type": "Point", "coordinates": [-2.7788150000000003, 55.955620999999994]}, "type": "Feature", "properties": {"en_curid": 1594, "name": "Alexander II of Scotland", "birth": "Haddington, United Kingdom (1198 AC)", "country": "United Kingdom", "continent": "Europe", "domain": 4, "occupation": "Politician", "hpi": 22.4732365}}, {"geometry": {"type": "Point", "coordinates": [20.466667, 44.816666999999995]}, "type": "Feature", "properties": {"en_curid": 1595, "name": "Alexander I of Serbia", "birth": "Belgrade, Serbia (1876 AC)", "country": "Serbia", "continent": "Europe", "domain": 4, "occupation": "Politician", "hpi": 22.56057841}}, {"geometry": {"type": "Point", "coordinates": [-2.4562, 55.5965]}, "type": "Feature", "properties": {"en_curid": 1596, "name": "Alexander III of Scotland", "birth": "Roxburgh, United Kingdom (1241 AC)", "country": "United Kingdom", "continent": "Europe", "domain": 4, "occupation": "Politician", "hpi": 22.56296824}}, {"geometry": {"type": "Point", "coordinates": [36.045833, 34.530556]}, "type": "Feature", "properties": {"en_curid": 1600, "name": "Alexander Severus", "birth": "Akkar, Lebanon (208 AC)", "country": "Lebanon", "continent": "Asia", "domain": 4, "occupation": "Politician", "hpi": 26.62963749}}, {"geometry": {"type": "Point", "coordinates": [28.966666999999998, 41.0]}, "type": "Feature", "properties": {"en_curid": 1613, "name": "Alexios I Komnenos", "birth": "Istanbul, Turkey (1048 AC)", "country": "Turkey", "continent": "Asia", "domain": 4, "occupation": "Politician", "hpi": 25.74453467}}, {"geometry": {"type": "Point", "coordinates": [28.976018, 41.012240000000006]}, "type": "Feature", "properties": {"en_curid": 1615, "name": "Alexios II Komnenos", "birth": "Istanbul, Turkey (1169 AC)", "country": "Turkey", "continent": "Asia", "domain": 4, "occupation": "Politician", "hpi": 24.20252808}}, {"geometry": {"type": "Point", "coordinates": [35.0, 39.0]}, "type": "Feature", "properties": {"en_curid": 1616, "name": "Alexios III Angelos", "birth": "Istanbul, Turkey (1153 AC)", "country": "Turkey", "continent": "Asia", "domain": 4, "occupation": "Politician", "hpi": 24.3554065}}, {"geometry": {"type": "Point", "coordinates": [0.0, -75.0]}, "type": "Feature", "properties": {"en_curid": 1617, "name": "Alexios V", "birth": "Other, Unknown (1150 AC)", "country": "Unknown", "continent": "Unknown", "domain": 4, "occupation": "Politician", "hpi": 23.86092511}}, {"geometry": {"type": "Point", "coordinates": [-97.0, 38.0]}, "type": "Feature", "properties": {"en_curid": 1623, "name": "Andrew Jackson", "birth": "Waxhaw, United States (1767 AC)", "country": "United States", "continent": "North America", "domain": 4, "occupation": "Politician", "hpi": 25.35508721}}, {"geometry": {"type": "Point", "coordinates": [-78.638889, 35.780556]}, "type": "Feature", "properties": {"en_curid": 1624, "name": "Andrew Johnson", "birth": "Raleigh, United States (1808 AC)", "country": "United States", "continent": "North America", "domain": 4, "occupation": "Politician", "hpi": 25.03865625}}, {"geometry": {"type": "Point", "coordinates": [42.716667, 43.916667]}, "type": "Feature", "properties": {"en_curid": 1625, "name": "Aleksandr Solzhenitsyn", "birth": "Kislovodsk, Russia (1918 AC)", "country": "Russia", "continent": "Europe", "domain": 3, "occupation": "Writer", "hpi": 25.3365328}}, {"geometry": {"type": "Point", "coordinates": [-1.4269999999999998, 51.589]}, "type": "Feature", "properties": {"en_curid": 1640, "name": "Alfred the Great", "birth": "Oxfordshire, United Kingdom (849 AC)", "country": "United Kingdom", "continent": "Europe", "domain": 4, "occupation": "Politician", "hpi": 26.49813804}}, {"geometry": {"type": "Point", "coordinates": [47.816666999999995, 30.5]}, "type": "Feature", "properties": {"en_curid": 1645, "name": "Ibn al-Haitham", "birth": "Basra, Iraq (965 AC)", "country": "Iraq", "continent": "Asia", "domain": 6, "occupation": "Physicist", "hpi": 25.19514353}}, {"geometry": {"type": "Point", "coordinates": [0.0, -75.0]}, "type": "Feature", "properties": {"en_curid": 1652, "name": "Alyattes II", "birth": "Other, Unknown (619 BC)", "country": "Unknown", "continent": "Unknown", "domain": 4, "occupation": "Politician", "hpi": 24.27789086}}, {"geometry": {"type": "Point", "coordinates": [12.83, 42.83]}, "type": "Feature", "properties": {"en_curid": 1655, "name": "Amalasuntha", "birth": "Tuscany, Italy (495 AC)", "country": "Italy", "continent": "Europe", "domain": 5, "occupation": "Companion", "hpi": 24.89229701}}, {"geometry": {"type": "Point", "coordinates": [-8.3, 41.45]}, "type": "Feature", "properties": {"en_curid": 1657, "name": "Afonso I of Portugal", "birth": "Guimar\u00e3es, Portugal (1109 AC)", "country": "Portugal", "continent": "Europe", "domain": 4, "occupation": "Politician", "hpi": 25.74083248}}, {"geometry": {"type": "Point", "coordinates": [-8.429167, 40.211110999999995]}, "type": "Feature", "properties": {"en_curid": 1658, "name": "Afonso II of Portugal", "birth": "Coimbra, Portugal (1185 AC)", "country": "Portugal", "continent": "Europe", "domain": 4, "occupation": "Politician", "hpi": 24.21310801}}, {"geometry": {"type": "Point", "coordinates": [-8.429167, 40.211110999999995]}, "type": "Feature", "properties": {"en_curid": 1659, "name": "Afonso III of Portugal", "birth": "Coimbra, Portugal (1210 AC)", "country": "Portugal", "continent": "Europe", "domain": 4, "occupation": "Politician", "hpi": 24.15942763}}, {"geometry": {"type": "Point", "coordinates": [-9.139444000000001, 38.713889]}, "type": "Feature", "properties": {"en_curid": 1660, "name": "Afonso IV of Portugal", "birth": "Lisbon, Portugal (1291 AC)", "country": "Portugal", "continent": "Europe", "domain": 4, "occupation": "Politician", "hpi": 24.05310877}}, {"geometry": {"type": "Point", "coordinates": [-9.390833, 38.797778]}, "type": "Feature", "properties": {"en_curid": 1661, "name": "Afonso V of Portugal", "birth": "Sintra, Portugal (1432 AC)", "country": "Portugal", "continent": "Europe", "domain": 4, "occupation": "Politician", "hpi": 23.56300313}}, {"geometry": {"type": "Point", "coordinates": [-3.683333, 40.4]}, "type": "Feature", "properties": {"en_curid": 1676, "name": "Alfonso XII of Spain", "birth": "Madrid, Spain (1857 AC)", "country": "Spain", "continent": "Europe", "domain": 4, "occupation": "Politician", "hpi": 24.27946034}}, {"geometry": {"type": "Point", "coordinates": [-3.683333, 40.4]}, "type": "Feature", "properties": {"en_curid": 1677, "name": "Alfonso XIII of Spain", "birth": "Madrid, Spain (1886 AC)", "country": "Spain", "continent": "Europe", "domain": 4, "occupation": "Politician", "hpi": 24.86073526}}, {"geometry": {"type": "Point", "coordinates": [-4.9166669999999995, 41.3]}, "type": "Feature", "properties": {"en_curid": 1686, "name": "Alfonso V of Aragon", "birth": "Medina del Campo, Spain (1396 AC)", "country": "Spain", "continent": "Europe", "domain": 4, "occupation": "Politician", "hpi": 24.204476899999996}}, {"geometry": {"type": "Point", "coordinates": [4.0, 50.83]}, "type": "Feature", "properties": {"en_curid": 1698, "name": "Ambiorix", "birth": "Other, Belgium (100 BC)", "country": "Belgium", "continent": "Europe", "domain": 4, "occupation": "Politician", "hpi": 24.50953511}}, {"geometry": {"type": "Point", "coordinates": [39.816666999999995, 21.416667]}, "type": "Feature", "properties": {"en_curid": 1715, "name": "Abu Bakr", "birth": "Mecca, Saudi Arabia (573 AC)", "country": "Saudi Arabia", "continent": "Asia", "domain": 4, "occupation": "Religious Figure", "hpi": 27.20399014}}, {"geometry": {"type": "Point", "coordinates": [0.0, -75.0]}, "type": "Feature", "properties": {"en_curid": 1735, "name": "Ananda", "birth": "Other, Unknown (573 BC)", "country": "Unknown", "continent": "Unknown", "domain": 4, "occupation": "Religious Figure", "hpi": 25.9022039}}, {"geometry": {"type": "Point", "coordinates": [26.767583000000002, 38.358167]}, "type": "Feature", "properties": {"en_curid": 1737, "name": "Anaxagoras", "birth": "Clazomenae, Turkey (500 BC)", "country": "Turkey", "continent": "Asia", "domain": 3, "occupation": "Philosopher", "hpi": 27.8563984}}, {"geometry": {"type": "Point", "coordinates": [27.278333, 37.530278]}, "type": "Feature", "properties": {"en_curid": 1748, "name": "Anaximenes of Miletus", "birth": "Miletus, Turkey (585 BC)", "country": "Turkey", "continent": "Asia", "domain": 3, "occupation": "Philosopher", "hpi": 27.36729233}}, {"geometry": {"type": "Point", "coordinates": [12.83, 42.83]}, "type": "Feature", "properties": {"en_curid": 1749, "name": "Ancus Marcius", "birth": "Rome, Italy (700 BC)", "country": "Italy", "continent": "Europe", "domain": 4, "occupation": "Politician", "hpi": 26.24905903}}, {"geometry": {"type": "Point", "coordinates": [18.740278, 47.785556]}, "type": "Feature", "properties": {"en_curid": 1755, "name": "Andrew II of Hungary", "birth": "Esztergom, Hungary (1177 AC)", "country": "Hungary", "continent": "Europe", "domain": 4, "occupation": "Politician", "hpi": 24.3764208}}, {"geometry": {"type": "Point", "coordinates": [28.976018, 41.012240000000006]}, "type": "Feature", "properties": {"en_curid": 1760, "name": "Andronikos III Palaiologos", "birth": "Istanbul, Turkey (1297 AC)", "country": "Turkey", "continent": "Asia", "domain": 4, "occupation": "Politician", "hpi": 24.32138989}}, {"geometry": {"type": "Point", "coordinates": [29.721110999999997, 40.429167]}, "type": "Feature", "properties": {"en_curid": 1761, "name": "Andronikos II Palaiologos", "birth": "\u0130znik, Turkey (1259 AC)", "country": "Turkey", "continent": "Asia", "domain": 4, "occupation": "Politician", "hpi": 24.5234321}}, {"geometry": {"type": "Point", "coordinates": [28.976018, 41.012240000000006]}, "type": "Feature", "properties": {"en_curid": 1762, "name": "Andronikos I Komnenos", "birth": "Istanbul, Turkey (1118 AC)", "country": "Turkey", "continent": "Asia", "domain": 4, "occupation": "Politician", "hpi": 24.91866652}}, {"geometry": {"type": "Point", "coordinates": [36.15, 36.2]}, "type": "Feature", "properties": {"en_curid": 1767, "name": "Ammianus Marcellinus", "birth": "Antioch, Turkey (320 AC)", "country": "Turkey", "continent": "Asia", "domain": 3, "occupation": "Writer", "hpi": 26.39929066}}, {"geometry": {"type": "Point", "coordinates": [3.0, 28.0]}, "type": "Feature", "properties": {"en_curid": 1789, "name": "Apuleius", "birth": "Madaurus, Algeria (120 AC)", "country": "Algeria", "continent": "Africa", "domain": 3, "occupation": "Writer", "hpi": 26.85517022}}, {"geometry": {"type": "Point", "coordinates": [-2.9410000000000003, 56.214]}, "type": "Feature", "properties": {"en_curid": 1790, "name": "Alexander Selkirk", "birth": "Lower Largo, United Kingdom (1676 AC)", "country": "United Kingdom", "continent": "Europe", "domain": 5, "occupation": "Pirate", "hpi": 23.82673521}}, {"geometry": {"type": "Point", "coordinates": [15.354167000000002, 47.078333]}, "type": "Feature", "properties": {"en_curid": 1806, "name": "Arnold Schwarzenegger", "birth": "Thal, Austria (1947 AC)", "country": "Austria", "continent": "Europe", "domain": 0, "occupation": "Actor", "hpi": 26.93705727}}, {"geometry": {"type": "Point", "coordinates": [-3.16737, 56.110730000000004]}, "type": "Feature", "properties": {"en_curid": 1814, "name": "Adam Smith", "birth": "Kirkcaldy, United Kingdom (1723 AC)", "country": "United Kingdom", "continent": "Europe", "domain": 6, "occupation": "Economist", "hpi": 29.01054945}}, {"geometry": {"type": "Point", "coordinates": [2.3508, 48.8567]}, "type": "Feature", "properties": {"en_curid": 1822, "name": "Antoine Lavoisier", "birth": "Paris, France (1743 AC)", "country": "France", "continent": "Europe", "domain": 6, "occupation": "Chemist", "hpi": 27.11173497}}, {"geometry": {"type": "Point", "coordinates": [81.85, 25.45]}, "type": "Feature", "properties": {"en_curid": 1828, "name": "Amitabh Bachchan", "birth": "Allahabad, India (1942 AC)", "country": "India", "continent": "Asia", "domain": 0, "occupation": "Actor", "hpi": 23.07584302}}, {"geometry": {"type": "Point", "coordinates": [14.0, 37.5]}, "type": "Feature", "properties": {"en_curid": 1840, "name": "Agathocles of Syracuse", "birth": "Sicily, Italy (361 BC)", "country": "Italy", "continent": "Europe", "domain": 4, "occupation": "Politician", "hpi": 24.21790548}}, {"geometry": {"type": "Point", "coordinates": [2.3508, 48.8567]}, "type": "Feature", "properties": {"en_curid": 1842, "name": "Augustin Louis Cauchy", "birth": "Paris, France (1789 AC)", "country": "France", "continent": "Europe", "domain": 6, "occupation": "Mathematician", "hpi": 25.48861979}}, {"geometry": {"type": "Point", "coordinates": [15.283332999999999, 37.083333]}, "type": "Feature", "properties": {"en_curid": 1844, "name": "Archimedes", "birth": "Syracuse, Italy (287 BC)", "country": "Italy", "continent": "Europe", "domain": 6, "occupation": "Mathematician", "hpi": 30.99069732}}, {"geometry": {"type": "Point", "coordinates": [-0.7689, 48.0733]}, "type": "Feature", "properties": {"en_curid": 1869, "name": "Alfred Jarry", "birth": "Laval, France (1873 AC)", "country": "France", "continent": "Europe", "domain": 3, "occupation": "Writer", "hpi": 24.35812157}}, {"geometry": {"type": "Point", "coordinates": [27.845278000000004, 37.848056]}, "type": "Feature", "properties": {"en_curid": 1873, "name": "Anthemius of Tralles", "birth": "Ayd\u0131n, Turkey (474 AC)", "country": "Turkey", "continent": "Asia", "domain": 6, "occupation": "Mathematician", "hpi": 23.74399411}}, {"geometry": {"type": "Point", "coordinates": [9.083333, 45.816666999999995]}, "type": "Feature", "properties": {"en_curid": 1923, "name": "Alessandro Volta", "birth": "Como, Italy (1745 AC)", "country": "Italy", "continent": "Europe", "domain": 6, "occupation": "Physicist", "hpi": 27.34572591}}, {"geometry": {"type": "Point", "coordinates": [-2.0, 54.0]}, "type": "Feature", "properties": {"en_curid": 1937, "name": "Alexander Fleming", "birth": "Lochfield, United Kingdom (1881 AC)", "country": "United Kingdom", "continent": "Europe", "domain": 6, "occupation": "Biologist", "hpi": 26.88210337}}, {"geometry": {"type": "Point", "coordinates": [-2.0, 54.0]}, "type": "Feature", "properties": {"en_curid": 1938, "name": "Andrew Carnegie", "birth": "Dunfermline, United Kingdom (1835 AC)", "country": "United Kingdom", "continent": "Europe", "domain": 1, "occupation": "Businessperson", "hpi": 23.8708565}}, {"geometry": {"type": "Point", "coordinates": [6.257778, 53.233332999999995]}, "type": "Feature", "properties": {"en_curid": 1988, "name": "Abel Tasman", "birth": "Lutjegast, Netherlands (1603 AC)", "country": "Netherlands", "continent": "Europe", "domain": 2, "occupation": "Explorer", "hpi": 25.94326955}}, {"geometry": {"type": "Point", "coordinates": [23.508333, 62.808333]}, "type": "Feature", "properties": {"en_curid": 2009, "name": "Alvar Aalto", "birth": "Kuortane, Finland (1898 AC)", "country": "Finland", "continent": "Europe", "domain": 0, "occupation": "Architect", "hpi": 26.34853864}}, {"geometry": {"type": "Point", "coordinates": [-0.116667, 51.5]}, "type": "Feature", "properties": {"en_curid": 2018, "name": "A.J. Ayer", "birth": "United Kingdom, United Kingdom (1910 AC)", "country": "United Kingdom", "continent": "Europe", "domain": 3, "occupation": "Philosopher", "hpi": 21.984325100000003}}, {"geometry": {"type": "Point", "coordinates": [9.75, 59.0]}, "type": "Feature", "properties": {"en_curid": 2021, "name": "Atle Selberg", "birth": "Langesund, Norway (1917 AC)", "country": "Norway", "continent": "Europe", "domain": 6, "occupation": "Mathematician", "hpi": 22.59187258}}, {"geometry": {"type": "Point", "coordinates": [23.533333, 38.033333]}, "type": "Feature", "properties": {"en_curid": 2023, "name": "Aeschylus", "birth": "Eleusina, Greece (525 BC)", "country": "Greece", "continent": "Europe", "domain": 3, "occupation": "Writer", "hpi": 29.09962779}}, {"geometry": {"type": "Point", "coordinates": [0.11900000000000001, 52.205]}, "type": "Feature", "properties": {"en_curid": 2027, "name": "Andrew Wiles", "birth": "Cambridge, United Kingdom (1953 AC)", "country": "United Kingdom", "continent": "Europe", "domain": 6, "occupation": "Mathematician", "hpi": 22.12957571}}, {"geometry": {"type": "Point", "coordinates": [-1.8504, 53.7898]}, "type": "Feature", "properties": {"en_curid": 2029, "name": "Anne Bront\u00eb", "birth": "Thornton, United Kingdom (1820 AC)", "country": "United Kingdom", "continent": "Europe", "domain": 3, "occupation": "Writer", "hpi": 24.41483622}}, {"geometry": {"type": "Point", "coordinates": [3.0, 28.0]}, "type": "Feature", "properties": {"en_curid": 2030, "name": "Augustine of Hippo", "birth": "Souk Ahras, Algeria (354 AC)", "country": "Algeria", "continent": "Africa", "domain": 3, "occupation": "Philosopher", "hpi": 29.887238300000003}}, {"geometry": {"type": "Point", "coordinates": [13.383332999999999, 52.516667000000005]}, "type": "Feature", "properties": {"en_curid": 2042, "name": "Alexander Grothendieck", "birth": "Berlin, Germany (1928 AC)", "country": "Germany", "continent": "Europe", "domain": 6, "occupation": "Mathematician", "hpi": 22.49068801}}, {"geometry": {"type": "Point", "coordinates": [11.25, 43.783333]}, "type": "Feature", "properties": {"en_curid": 2062, "name": "Amerigo Vespucci", "birth": "Florence, Italy (1454 AC)", "country": "Italy", "continent": "Europe", "domain": 2, "occupation": "Explorer", "hpi": 27.50074308}}, {"geometry": {"type": "Point", "coordinates": [3.1281, 42.4831]}, "type": "Feature", "properties": {"en_curid": 2063, "name": "Aristide Maillol", "birth": "Banyuls-sur-Mer, France (1861 AC)", "country": "France", "continent": "Europe", "domain": 0, "occupation": "Painter", "hpi": 23.374426999999997}}, {"geometry": {"type": "Point", "coordinates": [11.883333, 45.85]}, "type": "Feature", "properties": {"en_curid": 2064, "name": "Antonio Canova", "birth": "Possagno, Italy (1757 AC)", "country": "Italy", "continent": "Europe", "domain": 0, "occupation": "Artist", "hpi": 25.667851199999998}}, {"geometry": {"type": "Point", "coordinates": [2.3508, 48.8567]}, "type": "Feature", "properties": {"en_curid": 2065, "name": "Auguste Rodin", "birth": "Paris, France (1840 AC)", "country": "France", "continent": "Europe", "domain": 0, "occupation": "Sculptor", "hpi": 25.18118327}}, {"geometry": {"type": "Point", "coordinates": [11.433333, 48.766667]}, "type": "Feature", "properties": {"en_curid": 2077, "name": "Adam Weishaupt", "birth": "Ingolstadt, Germany (1748 AC)", "country": "Germany", "continent": "Europe", "domain": 3, "occupation": "Philosopher", "hpi": 23.93439762}}, {"geometry": {"type": "Point", "coordinates": [15.180278, 50.127778]}, "type": "Feature", "properties": {"en_curid": 2108, "name": "Adalbert of Prague", "birth": "Libice nad Cidlinou, Czech Republic (956 AC)", "country": "Czech Republic", "continent": "Europe", "domain": 4, "occupation": "Religious Figure", "hpi": 24.84646451}}, {"geometry": {"type": "Point", "coordinates": [-73.757222, 42.6525]}, "type": "Feature", "properties": {"en_curid": 187477, "name": "Joseph Henry", "birth": "Albany, United States (1797 AC)", "country": "United States", "continent": "North America", "domain": 6, "occupation": "Physicist", "hpi": 23.50731249}}, {"geometry": {"type": "Point", "coordinates": [11.566667, 48.133333]}, "type": "Feature", "properties": {"en_curid": 2151, "name": "Anton Drexler", "birth": "Munich, Germany (1884 AC)", "country": "Germany", "continent": "Europe", "domain": 4, "occupation": "Politician", "hpi": 23.11464582}}, {"geometry": {"type": "Point", "coordinates": [65.0, 33.0]}, "type": "Feature", "properties": {"en_curid": 2176, "name": "Ahmed Shah Massoud", "birth": "Panjsh\u012br Province, Afghanistan (1953 AC)", "country": "Afghanistan", "continent": "Asia", "domain": 4, "occupation": "Politician", "hpi": 22.32674999}}, {"geometry": {"type": "Point", "coordinates": [-3.7, 40.433333000000005]}, "type": "Feature", "properties": {"en_curid": 2180, "name": "Arcadius", "birth": "Spain, Spain (370 AC)", "country": "Spain", "continent": "Europe", "domain": 4, "occupation": "Politician", "hpi": 26.68381151}}, {"geometry": {"type": "Point", "coordinates": [12.568333, 55.676111]}, "type": "Feature", "properties": {"en_curid": 2201, "name": "Aage Niels Bohr", "birth": "Copenhagen, Denmark (1922 AC)", "country": "Denmark", "continent": "Europe", "domain": 6, "occupation": "Physicist", "hpi": 23.07579395}}, {"geometry": {"type": "Point", "coordinates": [12.483333, 41.9]}, "type": "Feature", "properties": {"en_curid": 2238, "name": "Antipope John XXIII", "birth": "Naples, Italy (1370 AC)", "country": "Italy", "continent": "Europe", "domain": 4, "occupation": "Religious Figure", "hpi": 21.90064061}}, {"geometry": {"type": "Point", "coordinates": [11.3125, 45.194444]}, "type": "Feature", "properties": {"en_curid": 2241, "name": "Antonio Salieri", "birth": "Legnago, Italy (1750 AC)", "country": "Italy", "continent": "Europe", "domain": 0, "occupation": "Composer", "hpi": 26.37723755}}, {"geometry": {"type": "Point", "coordinates": [-2.745, 54.326]}, "type": "Feature", "properties": {"en_curid": 2274, "name": "Arthur Stanley Eddington", "birth": "Kendal, United Kingdom (1882 AC)", "country": "United Kingdom", "continent": "Europe", "domain": 6, "occupation": "Astronomer", "hpi": 23.4465988}}, {"geometry": {"type": "Point", "coordinates": [-73.757222, 42.6525]}, "type": "Feature", "properties": {"en_curid": 313701, "name": "Paul Krugman", "birth": "Albany, United States (1953 AC)", "country": "United States", "continent": "North America", "domain": 6, "occupation": "Economist", "hpi": 21.96687857}}, {"geometry": {"type": "Point", "coordinates": [0.0, -75.0]}, "type": "Feature", "properties": {"en_curid": 2340, "name": "Antipope Felix II", "birth": "Other, Unknown (300 AC)", "country": "Unknown", "continent": "Unknown", "domain": 4, "occupation": "Religious Figure", "hpi": 22.62300393}}, {"geometry": {"type": "Point", "coordinates": [13.366667000000001, 38.116667]}, "type": "Feature", "properties": {"en_curid": 2363, "name": "Alessandro Scarlatti", "birth": "Palermo, Italy (1660 AC)", "country": "Italy", "continent": "Europe", "domain": 0, "occupation": "Composer", "hpi": 25.44008727}}, {"geometry": {"type": "Point", "coordinates": [10.143611, 49.666944]}, "type": "Feature", "properties": {"en_curid": 2383, "name": "Alois Alzheimer", "birth": "Marktbreit, Germany (1864 AC)", "country": "Germany", "continent": "Europe", "domain": 6, "occupation": "Physician", "hpi": 24.77409335}}, {"geometry": {"type": "Point", "coordinates": [136.9, 35.183333000000005]}, "type": "Feature", "properties": {"en_curid": 2391, "name": "Akio Morita", "birth": "Nagoya, Japan (1921 AC)", "country": "Japan", "continent": "Asia", "domain": 1, "occupation": "Businessperson", "hpi": 23.32119806}}, {"geometry": {"type": "Point", "coordinates": [-3.7527779999999997, 51.574444]}, "type": "Feature", "properties": {"en_curid": 2397, "name": "Anthony Hopkins", "birth": "Margam, United Kingdom (1937 AC)", "country": "United Kingdom", "continent": "Europe", "domain": 0, "occupation": "Actor", "hpi": 26.31669692}}, {"geometry": {"type": "Point", "coordinates": [11.083333, 49.45]}, "type": "Feature", "properties": {"en_curid": 2402, "name": "Albrecht D\u00fcrer", "birth": "Nuremberg, Germany (1471 AC)", "country": "Germany", "continent": "Europe", "domain": 0, "occupation": "Painter", "hpi": 28.81835925}}, {"geometry": {"type": "Point", "coordinates": [16.366667, 48.2]}, "type": "Feature", "properties": {"en_curid": 2406, "name": "Alban Berg", "birth": "Vienna, Austria (1885 AC)", "country": "Austria", "continent": "Europe", "domain": 0, "occupation": "Composer", "hpi": 25.29831996}}, {"geometry": {"type": "Point", "coordinates": [74.25, 22.866667]}, "type": "Feature", "properties": {"en_curid": 2425, "name": "Aurangzeb", "birth": "Dahod, India (1618 AC)", "country": "India", "continent": "Asia", "domain": 4, "occupation": "Politician", "hpi": 22.68873712}}, {"geometry": {"type": "Point", "coordinates": [9.6, 46.35]}, "type": "Feature", "properties": {"en_curid": 2433, "name": "Alberto Giacometti", "birth": "Borgonovo, Switzerland (1901 AC)", "country": "Switzerland", "continent": "Europe", "domain": 0, "occupation": "Artist", "hpi": 24.2742091}}, {"geometry": {"type": "Point", "coordinates": [12.083333, 49.016667]}, "type": "Feature", "properties": {"en_curid": 2440, "name": "Albrecht Altdorfer", "birth": "Regensburg, Germany (1480 AC)", "country": "Germany", "continent": "Europe", "domain": 0, "occupation": "Painter", "hpi": 24.87889959}}, {"geometry": {"type": "Point", "coordinates": [38.916667, 47.216667]}, "type": "Feature", "properties": {"en_curid": 2447, "name": "Anton Chekhov", "birth": "Taganrog, Russia (1860 AC)", "country": "Russia", "continent": "Europe", "domain": 3, "occupation": "Writer", "hpi": 27.95507799}}, {"geometry": {"type": "Point", "coordinates": [0.0, -75.0]}, "type": "Feature", "properties": {"en_curid": 2510, "name": "Arnulf of Carinthia, Holy Roman Emperor", "birth": "Other, Unknown (850 AC)", "country": "Unknown", "continent": "Unknown", "domain": 4, "occupation": "Politician", "hpi": 25.8183102}}, {"geometry": {"type": "Point", "coordinates": [48.366667, 54.316667]}, "type": "Feature", "properties": {"en_curid": 2543, "name": "Alexander Kerensky", "birth": "Ulyanovsk, Russia (1881 AC)", "country": "Russia", "continent": "Europe", "domain": 4, "occupation": "Politician", "hpi": 24.80718575}}, {"geometry": {"type": "Point", "coordinates": [2.299, 49.891999999999996]}, "type": "Feature", "properties": {"en_curid": 2544, "name": "Ansgar", "birth": "Amiens, France (801 AC)", "country": "France", "continent": "Europe", "domain": 4, "occupation": "Religious Figure", "hpi": 23.81485145}}, {"geometry": {"type": "Point", "coordinates": [9.0, 51.0]}, "type": "Feature", "properties": {"en_curid": 2552, "name": "Adam of Bremen", "birth": "Missing, Germany (1050 AC)", "country": "Germany", "continent": "Europe", "domain": 3, "occupation": "Writer", "hpi": 25.14425463}}, {"geometry": {"type": "Point", "coordinates": [5.7222, 45.2002]}, "type": "Feature", "properties": {"en_curid": 2575, "name": "Andr\u00e9 the Giant", "birth": "Grenoble, France (1946 AC)", "country": "France", "continent": "Europe", "domain": 7, "occupation": "Wrestler", "hpi": 22.77082745}}, {"geometry": {"type": "Point", "coordinates": [29.916666999999997, 31.2]}, "type": "Feature", "properties": {"en_curid": 2609, "name": "Abbas II of Egypt", "birth": "Alexandria, Egypt (1874 AC)", "country": "Egypt", "continent": "Africa", "domain": 4, "occupation": "Politician", "hpi": 22.8172948}}, {"geometry": {"type": "Point", "coordinates": [35.371169, 32.862411]}, "type": "Feature", "properties": {"en_curid": 2676, "name": "Abd ar-Rahman I", "birth": "Deir Hanna, Israel (731 AC)", "country": "Israel", "continent": "Asia", "domain": 4, "occupation": "Politician", "hpi": 25.17878454}}, {"geometry": {"type": "Point", "coordinates": [-4.766667, 37.883333]}, "type": "Feature", "properties": {"en_curid": 2678, "name": "Abd-ar-Rahman III", "birth": "C\u00f3rdoba, Spain (912 AC)", "country": "Spain", "continent": "Europe", "domain": 4, "occupation": "Politician", "hpi": 24.73699913}}, {"geometry": {"type": "Point", "coordinates": [28.955, 41.013611]}, "type": "Feature", "properties": {"en_curid": 2681, "name": "Abd\u00fcl\u00e2ziz", "birth": "Istanbul, Turkey (1830 AC)", "country": "Turkey", "continent": "Asia", "domain": 4, "occupation": "Politician", "hpi": 24.41653475}}, {"geometry": {"type": "Point", "coordinates": [28.976018, 41.012240000000006]}, "type": "Feature", "properties": {"en_curid": 2692, "name": "\u2018Abdu\u2019l-Hamid I", "birth": "Istanbul, Turkey (1725 AC)", "country": "Turkey", "continent": "Asia", "domain": 4, "occupation": "Politician", "hpi": 24.675221}}, {"geometry": {"type": "Point", "coordinates": [69.166667, 34.533333]}, "type": "Feature", "properties": {"en_curid": 2695, "name": "Abdur Rahman Khan", "birth": "Kabul, Afghanistan (1844 AC)", "country": "Afghanistan", "continent": "Asia", "domain": 4, "occupation": "Politician", "hpi": 22.02934996}}, {"geometry": {"type": "Point", "coordinates": [17.644722, 59.858056000000005]}, "type": "Feature", "properties": {"en_curid": 2722, "name": "Anders Celsius", "birth": "Uppsala, Sweden (1701 AC)", "country": "Sweden", "continent": "Europe", "domain": 6, "occupation": "Astronomer", "hpi": 26.70446258}}, {"geometry": {"type": "Point", "coordinates": [37.616667, 55.75]}, "type": "Feature", "properties": {"en_curid": 2786, "name": "Andrei Sakharov", "birth": "Moscow, Russia (1921 AC)", "country": "Russia", "continent": "Europe", "domain": 6, "occupation": "Physicist", "hpi": 25.06881432}}, {"geometry": {"type": "Point", "coordinates": [24.106389, 56.948889]}, "type": "Feature", "properties": {"en_curid": 2812, "name": "Aron Nimzowitsch", "birth": "Riga, Latvia (1886 AC)", "country": "Latvia", "continent": "Europe", "domain": 3, "occupation": "Writer", "hpi": 22.98867474}}, {"geometry": {"type": "Point", "coordinates": [96.15, 16.8]}, "type": "Feature", "properties": {"en_curid": 2847, "name": "Aung San Suu Kyi", "birth": "Yangon, Unknown (1945 AC)", "country": "Unknown", "continent": "Asia", "domain": 5, "occupation": "Social Activist", "hpi": 24.85515312}}, {"geometry": {"type": "Point", "coordinates": [11.25, 43.783333]}, "type": "Feature", "properties": {"en_curid": 2875, "name": "Archduke Charles, Duke of Teschen", "birth": "Florence, Italy (1771 AC)", "country": "Italy", "continent": "Europe", "domain": 4, "occupation": "Nobleman", "hpi": 23.72577346}}, {"geometry": {"type": "Point", "coordinates": [12.5, 41.9]}, "type": "Feature", "properties": {"en_curid": 2877, "name": "Augustine of Canterbury", "birth": "Rome, Italy (630 AC)", "country": "Italy", "continent": "Europe", "domain": 4, "occupation": "Religious Figure", "hpi": 24.50968059}}, {"geometry": {"type": "Point", "coordinates": [32.29, 31.26]}, "type": "Feature", "properties": {"en_curid": 2911, "name": "Amr Diab", "birth": "Port Said, Egypt (1961 AC)", "country": "Egypt", "continent": "Africa", "domain": 0, "occupation": "Singer", "hpi": 20.61639628}}, {"geometry": {"type": "Point", "coordinates": [2.2686, 48.8881]}, "type": "Feature", "properties": {"en_curid": 2919, "name": "Ana\u00efs Nin", "birth": "Neuilly-sur-Seine, France (1903 AC)", "country": "France", "continent": "Europe", "domain": 3, "occupation": "Writer", "hpi": 24.08920242}}, {"geometry": {"type": "Point", "coordinates": [34.895097, 32.1679]}, "type": "Feature", "properties": {"en_curid": 2944, "name": "Ariel Sharon", "birth": "Kfar Malal, Israel (1928 AC)", "country": "Israel", "continent": "Asia", "domain": 4, "occupation": "Politician", "hpi": 26.03475525}}, {"geometry": {"type": "Point", "coordinates": [37.616667, 55.75]}, "type": "Feature", "properties": {"en_curid": 3017, "name": "Alexey Pazhitnov", "birth": "Moscow, Russia (1956 AC)", "country": "Russia", "continent": "Europe", "domain": 6, "occupation": "Computer Scientist", "hpi": 19.00383388}}, {"geometry": {"type": "Point", "coordinates": [51.423056, 35.696111]}, "type": "Feature", "properties": {"en_curid": 3019, "name": "`Abdu'l-Bah\u00e1", "birth": "Tehran, Iran (1844 AC)", "country": "Iran", "continent": "Asia", "domain": 4, "occupation": "Religious Figure", "hpi": 21.57294832}}, {"geometry": {"type": "Point", "coordinates": [136.9, 35.183333000000005]}, "type": "Feature", "properties": {"en_curid": 3092, "name": "Akira Toriyama", "birth": "Nagoya, Japan (1955 AC)", "country": "Japan", "continent": "Asia", "domain": 0, "occupation": "Comic Artist", "hpi": 23.43309315}}, {"geometry": {"type": "Point", "coordinates": [-73.415, 40.671667]}, "type": "Feature", "properties": {"en_curid": 182532, "name": "Alec Baldwin", "birth": "Long Island (ex Queens & Brooklyn), United States (1958 AC)", "country": "United States", "continent": "North America", "domain": 0, "occupation": "Actor", "hpi": 22.56023633}}, {"geometry": {"type": "Point", "coordinates": [4.9166669999999995, 50.266667]}, "type": "Feature", "properties": {"en_curid": 3132, "name": "Adolphe Sax", "birth": "Dinant, Belgium (1814 AC)", "country": "Belgium", "continent": "Europe", "domain": 6, "occupation": "Inventor", "hpi": 24.93354628}}, {"geometry": {"type": "Point", "coordinates": [-74.18333299999999, 42.95]}, "type": "Feature", "properties": {"en_curid": 69861, "name": "Kirk Douglas", "birth": "Amsterdam, United States (1916 AC)", "country": "United States", "continent": "North America", "domain": 0, "occupation": "Actor", "hpi": 25.37223593}}, {"geometry": {"type": "Point", "coordinates": [29.916666999999997, 31.2]}, "type": "Feature", "properties": {"en_curid": 3225, "name": "Athanasius of Alexandria", "birth": "Alexandria, Egypt (296 AC)", "country": "Egypt", "continent": "Africa", "domain": 3, "occupation": "Philosopher", "hpi": 25.99202469}}, {"geometry": {"type": "Point", "coordinates": [30.934444, 29.085556]}, "type": "Feature", "properties": {"en_curid": 3246, "name": "Anthony the Great", "birth": "Bani Sweif, Egypt (251 AC)", "country": "Egypt", "continent": "Africa", "domain": 4, "occupation": "Religious Figure", "hpi": 26.57172624}}, {"geometry": {"type": "Point", "coordinates": [-93.59, 33.667778000000006]}, "type": "Feature", "properties": {"en_curid": 3356, "name": "Bill Clinton", "birth": "Hope, United States (1946 AC)", "country": "United States", "continent": "North America", "domain": 4, "occupation": "Politician", "hpi": 26.27300621}}, {"geometry": {"type": "Point", "coordinates": [-90.471592, 31.244472]}, "type": "Feature", "properties": {"en_curid": 3382, "name": "Britney Spears", "birth": "McComb, United States (1981 AC)", "country": "United States", "continent": "North America", "domain": 0, "occupation": "Singer", "hpi": 22.19322186}}, {"geometry": {"type": "Point", "coordinates": [83.05, 27.533333000000002]}, "type": "Feature", "properties": {"en_curid": 3395, "name": "Gautama Buddha", "birth": "Lumbini, Nepal (563 BC)", "country": "Nepal", "continent": "Asia", "domain": 3, "occupation": "Philosopher", "hpi": 30.04180984}}, {"geometry": {"type": "Point", "coordinates": [4.9, 52.366667]}, "type": "Feature", "properties": {"en_curid": 3408, "name": "Baruch Spinoza", "birth": "Amsterdam, Netherlands (1632 AC)", "country": "Netherlands", "continent": "Europe", "domain": 3, "occupation": "Philosopher", "hpi": 28.01430167}}, {"geometry": {"type": "Point", "coordinates": [10.2107, 56.1572]}, "type": "Feature", "properties": {"en_curid": 3713, "name": "Bjarne Stroustrup", "birth": "Aarhus, Denmark (1950 AC)", "country": "Denmark", "continent": "Europe", "domain": 6, "occupation": "Engineer", "hpi": 22.11056392}}, {"geometry": {"type": "Point", "coordinates": [11.966667, 57.7]}, "type": "Feature", "properties": {"en_curid": 3740, "name": "Bj\u00f6rn Ulvaeus", "birth": "Gothenburg, Sweden (1945 AC)", "country": "Sweden", "continent": "Europe", "domain": 0, "occupation": "Musician", "hpi": 23.94930094}}, {"geometry": {"type": "Point", "coordinates": [17.87, 59.3575]}, "type": "Feature", "properties": {"en_curid": 3741, "name": "Benny Andersson", "birth": "V\u00e4llingby, Sweden (1946 AC)", "country": "Sweden", "continent": "Europe", "domain": 0, "occupation": "Musician", "hpi": 23.96603271}}, {"geometry": {"type": "Point", "coordinates": [-122.333056, 47.609722]}, "type": "Feature", "properties": {"en_curid": 3747, "name": "Bill Gates", "birth": "Seattle, United States (1955 AC)", "country": "United States", "continent": "North America", "domain": 1, "occupation": "Businessperson", "hpi": 26.34771663}}, {"geometry": {"type": "Point", "coordinates": [12.83, 42.83]}, "type": "Feature", "properties": {"en_curid": 3841, "name": "Bud Spencer", "birth": "Naples, Italy (1929 AC)", "country": "Italy", "continent": "Europe", "domain": 0, "occupation": "Actor", "hpi": 25.91896296}}, {"geometry": {"type": "Point", "coordinates": [2.3508, 48.8567]}, "type": "Feature", "properties": {"en_curid": 3845, "name": "Brigitte Bardot", "birth": "Paris, France (1934 AC)", "country": "France", "continent": "Europe", "domain": 0, "occupation": "Actor", "hpi": 26.69015637}}, {"geometry": {"type": "Point", "coordinates": [-2.0, 54.0]}, "type": "Feature", "properties": {"en_curid": 3873, "name": "Bernard Montgomery, 1st Viscount Montgomery of Alamein", "birth": "Kennington, United Kingdom (1887 AC)", "country": "United Kingdom", "continent": "Europe", "domain": 4, "occupation": "Military Personnel", "hpi": 26.32493667}}, {"geometry": {"type": "Point", "coordinates": [-0.1275, 51.507222]}, "type": "Feature", "properties": {"en_curid": 3875, "name": "Benjamin Disraeli, 1st Earl of Beaconsfield", "birth": "London, United Kingdom (1804 AC)", "country": "United Kingdom", "continent": "Europe", "domain": 4, "occupation": "Politician", "hpi": 25.0547177}}, {"geometry": {"type": "Point", "coordinates": [-73.11805600000001, 42.624167]}, "type": "Feature", "properties": {"en_curid": 27954, "name": "Susan B. Anthony", "birth": "Adams, United States (1820 AC)", "country": "United States", "continent": "North America", "domain": 5, "occupation": "Social Activist", "hpi": 21.58741249}}, {"geometry": {"type": "Point", "coordinates": [-6.21, 53.365]}, "type": "Feature", "properties": {"en_curid": 3992, "name": "Bram Stoker", "birth": "Dublin, Ireland (1847 AC)", "country": "Ireland", "continent": "Europe", "domain": 3, "occupation": "Writer", "hpi": 24.476936300000002}}, {"geometry": {"type": "Point", "coordinates": [21.016667, 52.233333]}, "type": "Feature", "properties": {"en_curid": 3999, "name": "Beno\u00eet Mandelbrot", "birth": "Warsaw, Poland (1924 AC)", "country": "Poland", "continent": "Europe", "domain": 6, "occupation": "Mathematician", "hpi": 23.95685657}}, {"geometry": {"type": "Point", "coordinates": [13.1, 42.8]}, "type": "Feature", "properties": {"en_curid": 4001, "name": "Benedict of Nursia", "birth": "Norcia, Italy (480 AC)", "country": "Italy", "continent": "Europe", "domain": 4, "occupation": "Religious Figure", "hpi": 27.34309476}}, {"geometry": {"type": "Point", "coordinates": [-122.45944399999999, 47.241389]}, "type": "Feature", "properties": {"en_curid": 4010, "name": "Bing Crosby", "birth": "Tacoma, United States (1903 AC)", "country": "United States", "continent": "North America", "domain": 0, "occupation": "Singer", "hpi": 23.15081359}}, {"geometry": {"type": "Point", "coordinates": [-72.517, 42.367]}, "type": "Feature", "properties": {"en_curid": 159275, "name": "Emily Dickinson", "birth": "Amherst, United States (1830 AC)", "country": "United States", "continent": "North America", "domain": 3, "occupation": "Writer", "hpi": 24.99478904}}, {"geometry": {"type": "Point", "coordinates": [-1.4804, 54.9797]}, "type": "Feature", "properties": {"en_curid": 4041, "name": "Bede", "birth": "Jarrow, United Kingdom (672 AC)", "country": "United Kingdom", "continent": "Europe", "domain": 3, "occupation": "Historian", "hpi": 25.86525679}}, {"geometry": {"type": "Point", "coordinates": [3.0824, 45.7831]}, "type": "Feature", "properties": {"en_curid": 4068, "name": "Blaise Pascal", "birth": "Clermont-Ferrand, France (1623 AC)", "country": "France", "continent": "Europe", "domain": 6, "occupation": "Mathematician", "hpi": 29.25435852}}, {"geometry": {"type": "Point", "coordinates": [-2.7256, 51.745059999999995]}, "type": "Feature", "properties": {"en_curid": 4163, "name": "Bertrand Russell", "birth": "Trellech, United Kingdom (1872 AC)", "country": "United Kingdom", "continent": "Europe", "domain": 6, "occupation": "Mathematician", "hpi": 27.43936147}}, {"geometry": {"type": "Point", "coordinates": [-97.0, 38.0]}, "type": "Feature", "properties": {"en_curid": 4173, "name": "Babe Ruth", "birth": "Baltimore, United States (1895 AC)", "country": "United States", "continent": "North America", "domain": 7, "occupation": "Baseball Player", "hpi": 23.99465261}}, {"geometry": {"type": "Point", "coordinates": [-74.172574, 40.72422]}, "type": "Feature", "properties": {"en_curid": 4216, "name": "Brian De Palma", "birth": "Newark, United States (1940 AC)", "country": "United States", "continent": "North America", "domain": 0, "occupation": "Film Director", "hpi": 24.739536800000003}}, {"geometry": {"type": "Point", "coordinates": [-1.568, 55.181000000000004]}, "type": "Feature", "properties": {"en_curid": 4224, "name": "Bobby Charlton", "birth": "Ashington, United Kingdom (1937 AC)", "country": "United Kingdom", "continent": "Europe", "domain": 7, "occupation": "Soccer Player", "hpi": 24.30452146}}, {"geometry": {"type": "Point", "coordinates": [2.3964, 47.0844]}, "type": "Feature", "properties": {"en_curid": 4233, "name": "Berthe Morisot", "birth": "Bourges, France (1841 AC)", "country": "France", "continent": "Europe", "domain": 0, "occupation": "Painter", "hpi": 24.06010778}}, {"geometry": {"type": "Point", "coordinates": [26.566667, 41.666667]}, "type": "Feature", "properties": {"en_curid": 4241, "name": "Bayezid I", "birth": "Edirne, Turkey (1354 AC)", "country": "Turkey", "continent": "Asia", "domain": 4, "occupation": "Politician", "hpi": 26.16063994}}, {"geometry": {"type": "Point", "coordinates": [26.5, 41.35]}, "type": "Feature", "properties": {"en_curid": 4242, "name": "Bayezid II", "birth": "Didymoteicho, Greece (1447 AC)", "country": "Greece", "continent": "Europe", "domain": 4, "occupation": "Politician", "hpi": 25.46494304}}, {"geometry": {"type": "Point", "coordinates": [78.0, 21.0]}, "type": "Feature", "properties": {"en_curid": 4285, "name": "Bodhidharma", "birth": "Kanchipuram, India (500 AC)", "country": "India", "continent": "Asia", "domain": 3, "occupation": "Philosopher", "hpi": 25.06659208}}, {"geometry": {"type": "Point", "coordinates": [34.75, 31.5]}, "type": "Feature", "properties": {"en_curid": 4313, "name": "Benjamin", "birth": "Canaan, Israel (1000 BC)", "country": "Israel", "continent": "Asia", "domain": 4, "occupation": "Religious Figure", "hpi": 24.22538054}}, {"geometry": {"type": "Point", "coordinates": [-101.883333, 33.566666999999995]}, "type": "Feature", "properties": {"en_curid": 4408, "name": "Buddy Holly", "birth": "Lubbock, United States (1936 AC)", "country": "United States", "continent": "North America", "domain": 0, "occupation": "Musician", "hpi": 24.7587637}}, {"geometry": {"type": "Point", "coordinates": [25.481828, 36.376775]}, "type": "Feature", "properties": {"en_curid": 4463, "name": "Babrak Karmal", "birth": "Kamari, Greece (1929 AC)", "country": "Greece", "continent": "Asia", "domain": 4, "occupation": "Politician", "hpi": 22.51233562}}, {"geometry": {"type": "Point", "coordinates": [-93.055278, 34.497222]}, "type": "Feature", "properties": {"en_curid": 4471, "name": "Billy Bob Thornton", "birth": "Hot Springs, United States (1955 AC)", "country": "United States", "continent": "North America", "domain": 0, "occupation": "Actor", "hpi": 22.38265976}}, {"geometry": {"type": "Point", "coordinates": [-0.1909, 51.5004]}, "type": "Feature", "properties": {"en_curid": 4481, "name": "Beatrix Potter", "birth": "London, United Kingdom (1866 AC)", "country": "United Kingdom", "continent": "Europe", "domain": 3, "occupation": "Writer", "hpi": 23.49700275}}, {"geometry": {"type": "Point", "coordinates": [-3.183333, 51.483333]}, "type": "Feature", "properties": {"en_curid": 4517, "name": "Boudica", "birth": "South Wales, United Kingdom (1 AC)", "country": "United Kingdom", "continent": "Europe", "domain": 4, "occupation": "Politician", "hpi": 25.89924056}}, {"geometry": {"type": "Point", "coordinates": [20.629444, 46.072222]}, "type": "Feature", "properties": {"en_curid": 4527, "name": "B\u00e9la Bart\u00f3k", "birth": "S\u00e2nnicolau Mare, Romania (1881 AC)", "country": "Romania", "continent": "Europe", "domain": 0, "occupation": "Composer", "hpi": 26.38997794}}, {"geometry": {"type": "Point", "coordinates": [-73.841389, 41.011389]}, "type": "Feature", "properties": {"en_curid": 1778716, "name": "Jesse McCartney", "birth": "Lower Hudson Valley, United States (1987 AC)", "country": "United States", "continent": "North America", "domain": 0, "occupation": "Singer", "hpi": 17.70008535}}, {"geometry": {"type": "Point", "coordinates": [72.333333, 40.783333]}, "type": "Feature", "properties": {"en_curid": 4551, "name": "Babur", "birth": "Andijan, Uzbekistan (1483 AC)", "country": "Uzbekistan", "continent": "Asia", "domain": 4, "occupation": "Politician", "hpi": 24.75136418}}, {"geometry": {"type": "Point", "coordinates": [5.0206, 47.3433]}, "type": "Feature", "properties": {"en_curid": 4552, "name": "Bernard of Clairvaux", "birth": "Fontaine-l\u00e8s-Dijon, France (1090 AC)", "country": "France", "continent": "Europe", "domain": 4, "occupation": "Religious Figure", "hpi": 26.78052322}}, {"geometry": {"type": "Point", "coordinates": [-2.0, 54.0]}, "type": "Feature", "properties": {"en_curid": 4572, "name": "Blackbeard", "birth": "Bristol, United Kingdom (1680 AC)", "country": "United Kingdom", "continent": "Europe", "domain": 5, "occupation": "Pirate", "hpi": 25.13191201}}, {"geometry": {"type": "Point", "coordinates": [18.068610999999997, 59.329443999999995]}, "type": "Feature", "properties": {"en_curid": 4601, "name": "Bj\u00f6rn Borg", "birth": "Stockholm, Sweden (1956 AC)", "country": "Sweden", "continent": "Europe", "domain": 7, "occupation": "Tennis Player", "hpi": 22.24780987}}, {"geometry": {"type": "Point", "coordinates": [33.0, 35.0]}, "type": "Feature", "properties": {"en_curid": 4607, "name": "Barnabas", "birth": "Cyprus, Cyprus (1 AC)", "country": "Cyprus", "continent": "Asia", "domain": 4, "occupation": "Religious Figure", "hpi": 25.53876305}}, {"geometry": {"type": "Point", "coordinates": [70.579722, 37.1175]}, "type": "Feature", "properties": {"en_curid": 4611, "name": "Burhanuddin Rabbani", "birth": "Fayzabad, Afghanistan (1940 AC)", "country": "Afghanistan", "continent": "Asia", "domain": 4, "occupation": "Politician", "hpi": 21.43976417}}, {"geometry": {"type": "Point", "coordinates": [-73.904167, 40.774444]}, "type": "Feature", "properties": {"en_curid": 85226, "name": "Cyndi Lauper", "birth": "New York, United States (1953 AC)", "country": "United States", "continent": "North America", "domain": 0, "occupation": "Musician", "hpi": 23.67694504}}, {"geometry": {"type": "Point", "coordinates": [37.616667, 55.75]}, "type": "Feature", "properties": {"en_curid": 4667, "name": "Boris Pasternak", "birth": "Moscow, Russia (1890 AC)", "country": "Russia", "continent": "Europe", "domain": 3, "occupation": "Writer", "hpi": 25.88906437}}, {"geometry": {"type": "Point", "coordinates": [-83.142778, 42.488889]}, "type": "Feature", "properties": {"en_curid": 4670, "name": "Bruce Campbell", "birth": "Royal Oak, United States (1958 AC)", "country": "United States", "continent": "North America", "domain": 0, "occupation": "Actor", "hpi": 20.74878545}}, {"geometry": {"type": "Point", "coordinates": [-75.603889, 41.944722]}, "type": "Feature", "properties": {"en_curid": 4868, "name": "B. F. Skinner", "birth": "Susquehanna Depot, United States (1904 AC)", "country": "United States", "continent": "North America", "domain": 6, "occupation": "Psychologist", "hpi": 24.45538528}}, {"geometry": {"type": "Point", "coordinates": [11.783333, 43.1]}, "type": "Feature", "properties": {"en_curid": 4878, "name": "Robert Bellarmine", "birth": "Montepulciano, Italy (1542 AC)", "country": "Italy", "continent": "Europe", "domain": 6, "occupation": "Physician", "hpi": 23.91386744}}, {"geometry": {"type": "Point", "coordinates": [32.555556, 49.096111]}, "type": "Feature", "properties": {"en_curid": 4980, "name": "Bohdan Khmelnytsky", "birth": "Subotiv, Ukraine (1595 AC)", "country": "Ukraine", "continent": "Europe", "domain": 4, "occupation": "Military Personnel", "hpi": 24.78248595}}, {"geometry": {"type": "Point", "coordinates": [-90.471592, 31.244472]}, "type": "Feature", "properties": {"en_curid": 5033, "name": "Bo Diddley", "birth": "McComb, United States (1928 AC)", "country": "United States", "continent": "North America", "domain": 0, "occupation": "Musician", "hpi": 22.12962194}}, {"geometry": {"type": "Point", "coordinates": [21.900555999999998, 45.686111]}, "type": "Feature", "properties": {"en_curid": 5034, "name": "B\u00e9la Lugosi", "birth": "Lugoj, Romania (1882 AC)", "country": "Romania", "continent": "Europe", "domain": 0, "occupation": "Actor", "hpi": 24.39069739}}, {"geometry": {"type": "Point", "coordinates": [-72.85, 42.783333]}, "type": "Feature", "properties": {"en_curid": 5048, "name": "Brigham Young", "birth": "Whitingham, United States (1801 AC)", "country": "United States", "continent": "North America", "domain": 4, "occupation": "Religious Figure", "hpi": 22.90564081}}, {"geometry": {"type": "Point", "coordinates": [-93.62083299999999, 41.590833]}, "type": "Feature", "properties": {"en_curid": 5050, "name": "Bill Bryson", "birth": "Des Moines, United States (1951 AC)", "country": "United States", "continent": "North America", "domain": 3, "occupation": "Writer", "hpi": 20.90122264}}, {"geometry": {"type": "Point", "coordinates": [28.320556, -26.188333]}, "type": "Feature", "properties": {"en_curid": 5132, "name": "Charlize Theron", "birth": "Johannesburg, South Africa (1975 AC)", "country": "South Africa", "continent": "Africa", "domain": 0, "occupation": "Actor", "hpi": 20.91267584}}, {"geometry": {"type": "Point", "coordinates": [-0.0905, 51.4898]}, "type": "Feature", "properties": {"en_curid": 5142, "name": "Charlie Chaplin", "birth": "Walworth, United Kingdom (1889 AC)", "country": "United Kingdom", "continent": "Europe", "domain": 0, "occupation": "Actor", "hpi": 27.77041257}}, {"geometry": {"type": "Point", "coordinates": [14.202, 56.618]}, "type": "Feature", "properties": {"en_curid": 5233, "name": "Carl Linnaeus", "birth": "R\u00e5shult, Sweden (1707 AC)", "country": "Sweden", "continent": "Europe", "domain": 6, "occupation": "Biologist", "hpi": 28.28512565}}, {"geometry": {"type": "Point", "coordinates": [4.0, 50.83]}, "type": "Feature", "properties": {"en_curid": 5314, "name": "Charlemagne", "birth": "Li\u00e8ge, Belgium (742 AC)", "country": "Belgium", "continent": "Europe", "domain": 4, "occupation": "Politician", "hpi": 30.48367015}}, {"geometry": {"type": "Point", "coordinates": [8.932777999999999, 44.411111]}, "type": "Feature", "properties": {"en_curid": 5635, "name": "Christopher Columbus", "birth": "Genoa, Italy (1451 AC)", "country": "Italy", "continent": "Europe", "domain": 2, "occupation": "Explorer", "hpi": 30.1752596}}, {"geometry": {"type": "Point", "coordinates": [13.383332999999999, 54.083332999999996]}, "type": "Feature", "properties": {"en_curid": 5654, "name": "Caspar David Friedrich", "birth": "Greifswald, Germany (1774 AC)", "country": "Germany", "continent": "Europe", "domain": 0, "occupation": "Painter", "hpi": 26.66569623}}, {"geometry": {"type": "Point", "coordinates": [-118.736944, 34.143056]}, "type": "Feature", "properties": {"en_curid": 145534, "name": "Brad Delson", "birth": "Los Angeles, United States (1977 AC)", "country": "United States", "continent": "North America", "domain": 0, "occupation": "Musician", "hpi": 18.59209805}}, {"geometry": {"type": "Point", "coordinates": [-84.955278, 45.373333]}, "type": "Feature", "properties": {"en_curid": 5693, "name": "Claude Elwood Shannon", "birth": "Petoskey, United States (1916 AC)", "country": "United States", "continent": "North America", "domain": 6, "occupation": "Computer Scientist", "hpi": 24.614401100000002}}, {"geometry": {"type": "Point", "coordinates": [-3.488661, 50.551596]}, "type": "Feature", "properties": {"en_curid": 5698, "name": "Charles Babbage", "birth": "Teignmouth, United Kingdom (1791 AC)", "country": "United Kingdom", "continent": "Europe", "domain": 6, "occupation": "Inventor", "hpi": 26.1034057}}, {"geometry": {"type": "Point", "coordinates": [-0.2211, 51.4649]}, "type": "Feature", "properties": {"en_curid": 5766, "name": "Clement Attlee", "birth": "Putney, United Kingdom (1883 AC)", "country": "United Kingdom", "continent": "Europe", "domain": 4, "occupation": "Politician", "hpi": 23.77232713}}, {"geometry": {"type": "Point", "coordinates": [10.983333, 45.433333000000005]}, "type": "Feature", "properties": {"en_curid": 5768, "name": "Catullus", "birth": "Verona, Italy (84 BC)", "country": "Italy", "continent": "Europe", "domain": 3, "occupation": "Writer", "hpi": 27.49288162}}, {"geometry": {"type": "Point", "coordinates": [1.087, 51.275]}, "type": "Feature", "properties": {"en_curid": 5771, "name": "Christopher Marlowe", "birth": "Canterbury, United Kingdom (1564 AC)", "country": "United Kingdom", "continent": "Europe", "domain": 3, "occupation": "Writer", "hpi": 25.691195800000003}}, {"geometry": {"type": "Point", "coordinates": [12.335833000000001, 45.4375]}, "type": "Feature", "properties": {"en_curid": 5790, "name": "Carlo Goldoni", "birth": "Venice, Italy (1707 AC)", "country": "Italy", "continent": "Europe", "domain": 3, "occupation": "Writer", "hpi": 25.70735922}}, {"geometry": {"type": "Point", "coordinates": [2.3508, 48.8567]}, "type": "Feature", "properties": {"en_curid": 5804, "name": "Charles Baudelaire", "birth": "Paris, France (1821 AC)", "country": "France", "continent": "Europe", "domain": 3, "occupation": "Writer", "hpi": 27.55921883}}, {"geometry": {"type": "Point", "coordinates": [-5.93, 54.597]}, "type": "Feature", "properties": {"en_curid": 5813, "name": "C. S. Lewis", "birth": "Belfast, United Kingdom (1898 AC)", "country": "United Kingdom", "continent": "Europe", "domain": 3, "occupation": "Writer", "hpi": 25.21592051}}, {"geometry": {"type": "Point", "coordinates": [105.0, 35.0]}, "type": "Feature", "properties": {"en_curid": 5823, "name": "Confucius", "birth": "Qufu, China (551 BC)", "country": "China", "continent": "Asia", "domain": 3, "occupation": "Philosopher", "hpi": 31.37052629}}, {"geometry": {"type": "Point", "coordinates": [-2.0, 54.0]}, "type": "Feature", "properties": {"en_curid": 5884, "name": "Charles Dickens", "birth": "Portsmouth, United Kingdom (1812 AC)", "country": "United Kingdom", "continent": "Europe", "domain": 3, "occupation": "Writer", "hpi": 26.87218676}}, {"geometry": {"type": "Point", "coordinates": [12.83, 42.83]}, "type": "Feature", "properties": {"en_curid": 6046, "name": "Cicero", "birth": "Arpino, Italy (106 BC)", "country": "Italy", "continent": "Europe", "domain": 4, "occupation": "Politician", "hpi": 29.74259407}}, {"geometry": {"type": "Point", "coordinates": [11.855, 52.2725]}, "type": "Feature", "properties": {"en_curid": 6066, "name": "Carl von Clausewitz", "birth": "Burg bei Magdeburg, Germany (1780 AC)", "country": "Germany", "continent": "Europe", "domain": 3, "occupation": "Philosopher", "hpi": 25.90700068}}, {"geometry": {"type": "Point", "coordinates": [10.516667, 52.266667]}, "type": "Feature", "properties": {"en_curid": 6125, "name": "Carl Friedrich Gauss", "birth": "Braunschweig, Germany (1777 AC)", "country": "Germany", "continent": "Europe", "domain": 6, "occupation": "Mathematician", "hpi": 28.444153200000002}}, {"geometry": {"type": "Point", "coordinates": [4.84, 45.76]}, "type": "Feature", "properties": {"en_curid": 6140, "name": "Claudius", "birth": "Lyon, France (10 BC)", "country": "France", "continent": "Europe", "domain": 4, "occupation": "Politician", "hpi": 27.96619914}}, {"geometry": {"type": "Point", "coordinates": [-72.788889, 42.526389]}, "type": "Feature", "properties": {"en_curid": 6176, "name": "Cecil B. DeMille", "birth": "Ashfield, United States (1881 AC)", "country": "United States", "continent": "North America", "domain": 0, "occupation": "Film Director", "hpi": 23.05081378}}, {"geometry": {"type": "Point", "coordinates": [-82.1126373, 38.221480799999995]}, "type": "Feature", "properties": {"en_curid": 6185, "name": "Chuck Yeager", "birth": "Myra, United States (1923 AC)", "country": "United States", "continent": "North America", "domain": 4, "occupation": "Pilot", "hpi": 22.49686184}}, {"geometry": {"type": "Point", "coordinates": [-72.7388, 43.5299]}, "type": "Feature", "properties": {"en_curid": 6195, "name": "Calvin Coolidge", "birth": "Plymouth Notch, United States (1872 AC)", "country": "United States", "continent": "North America", "domain": 4, "occupation": "Politician", "hpi": 25.08010072}}, {"geometry": {"type": "Point", "coordinates": [10.033333, 45.133333]}, "type": "Feature", "properties": {"en_curid": 6226, "name": "Claudio Monteverdi", "birth": "Cremona, Italy (1567 AC)", "country": "Italy", "continent": "Europe", "domain": 0, "occupation": "Composer", "hpi": 27.10672732}}, {"geometry": {"type": "Point", "coordinates": [20.716667, 49.633333]}, "type": "Feature", "properties": {"en_curid": 6255, "name": "Carl Menger", "birth": "Nowy S\u0105cz, Poland (1840 AC)", "country": "Poland", "continent": "Europe", "domain": 6, "occupation": "Economist", "hpi": 23.94041718}}, {"geometry": {"type": "Point", "coordinates": [2.0938, 48.8989]}, "type": "Feature", "properties": {"en_curid": 6260, "name": "Claude Debussy", "birth": "Saint-Germain-en-Laye, France (1862 AC)", "country": "France", "continent": "Europe", "domain": 0, "occupation": "Composer", "hpi": 25.76217129}}, {"geometry": {"type": "Point", "coordinates": [20.516667, 54.716667]}, "type": "Feature", "properties": {"en_curid": 6290, "name": "Christian Goldbach", "birth": "Kaliningrad, Russia (1690 AC)", "country": "Russia", "continent": "Europe", "domain": 6, "occupation": "Mathematician", "hpi": 23.59463262}}, {"geometry": {"type": "Point", "coordinates": [5.633333, 50.666667]}, "type": "Feature", "properties": {"en_curid": 6452, "name": "Charles Martel", "birth": "Herstal, Belgium (686 AC)", "country": "Belgium", "continent": "Europe", "domain": 4, "occupation": "Military Personnel", "hpi": 27.65437448}}, {"geometry": {"type": "Point", "coordinates": [-1.8504, 53.7898]}, "type": "Feature", "properties": {"en_curid": 6532, "name": "Charlotte Bront\u00eb", "birth": "Thornton, United Kingdom (1816 AC)", "country": "United Kingdom", "continent": "Europe", "domain": 3, "occupation": "Writer", "hpi": 25.66428777}}, {"geometry": {"type": "Point", "coordinates": [24.032778, 55.394721999999994]}, "type": "Feature", "properties": {"en_curid": 6542, "name": "Czes\u0142aw Mi\u0142osz", "birth": "\u0160eteniai, Lithuania (1911 AC)", "country": "Lithuania", "continent": "Europe", "domain": 3, "occupation": "Writer", "hpi": 24.73662385}}, {"geometry": {"type": "Point", "coordinates": [2.3508, 48.8567]}, "type": "Feature", "properties": {"en_curid": 6548, "name": "Claude Monet", "birth": "Paris, France (1840 AC)", "country": "France", "continent": "Europe", "domain": 0, "occupation": "Painter", "hpi": 28.50443491}}, {"geometry": {"type": "Point", "coordinates": [-7.778664, 55.029743999999994]}, "type": "Feature", "properties": {"en_curid": 6561, "name": "Columba", "birth": "Gartan, Ireland (521 AC)", "country": "Ireland", "continent": "Europe", "domain": 4, "occupation": "Religious Figure", "hpi": 23.73077952}}, {"geometry": {"type": "Point", "coordinates": [23.033333, 45.066666999999995]}, "type": "Feature", "properties": {"en_curid": 6585, "name": "Constantin Brancusi", "birth": "Pe\u0219ti\u0219ani, Romania (1876 AC)", "country": "Romania", "continent": "Europe", "domain": 0, "occupation": "Sculptor", "hpi": 22.95268917}}, {"geometry": {"type": "Point", "coordinates": [-90.159722, 38.900556]}, "type": "Feature", "properties": {"en_curid": 20405, "name": "Miles Davis", "birth": "St. Louis, United States (1926 AC)", "country": "United States", "continent": "North America", "domain": 0, "occupation": "Musician", "hpi": 26.4765533}}, {"geometry": {"type": "Point", "coordinates": [19.616667, 44.983333]}, "type": "Feature", "properties": {"en_curid": 6746, "name": "Constantius II", "birth": "Sirmium, Serbia (317 AC)", "country": "Serbia", "continent": "Europe", "domain": 4, "occupation": "Politician", "hpi": 26.81830585}}, {"geometry": {"type": "Point", "coordinates": [28.976018, 41.012240000000006]}, "type": "Feature", "properties": {"en_curid": 6747, "name": "Constans", "birth": "Istanbul, Turkey (320 AC)", "country": "Turkey", "continent": "Asia", "domain": 4, "occupation": "Politician", "hpi": 25.625344600000002}}, {"geometry": {"type": "Point", "coordinates": [-73.904167, 40.774444]}, "type": "Feature", "properties": {"en_curid": 167790, "name": "Christopher Walken", "birth": "New York, United States (1943 AC)", "country": "United States", "continent": "North America", "domain": 0, "occupation": "Actor", "hpi": 24.7616244}}, {"geometry": {"type": "Point", "coordinates": [12.629053, 41.447947]}, "type": "Feature", "properties": {"en_curid": 6852, "name": "Caligula", "birth": "Anzio, Italy (12 AC)", "country": "Italy", "continent": "Europe", "domain": 4, "occupation": "Politician", "hpi": 29.45355922}}, {"geometry": {"type": "Point", "coordinates": [121.27611100000001, 29.689721999999996]}, "type": "Feature", "properties": {"en_curid": 6859, "name": "Chiang Kai-shek", "birth": "Xikou, China (1887 AC)", "country": "China", "continent": "Asia", "domain": 4, "occupation": "Military Personnel", "hpi": 26.76216385}}, {"geometry": {"type": "Point", "coordinates": [-74.205278, 11.241944]}, "type": "Feature", "properties": {"en_curid": 6878, "name": "Carlos Valderrama", "birth": "Santa Marta, Colombia (1961 AC)", "country": "Colombia", "continent": "South America", "domain": 7, "occupation": "Soccer Player", "hpi": 20.97040891}}, {"geometry": {"type": "Point", "coordinates": [3.1978, 47.6192]}, "type": "Feature", "properties": {"en_curid": 6928, "name": "Colette", "birth": "Saint-Sauveur-en-Puisaye, France (1873 AC)", "country": "France", "continent": "Europe", "domain": 3, "occupation": "Writer", "hpi": 24.32784117}}, {"geometry": {"type": "Point", "coordinates": [-3.3666669999999996, 40.466667]}, "type": "Feature", "properties": {"en_curid": 6942, "name": "Catherine of Aragon", "birth": "Alcal\u00e1 de Henares, Spain (1485 AC)", "country": "Spain", "continent": "Europe", "domain": 5, "occupation": "Companion", "hpi": 27.0954672}}, {"geometry": {"type": "Point", "coordinates": [-73.904167, 40.774444]}, "type": "Feature", "properties": {"en_curid": 232669, "name": "Tony Bennett", "birth": "New York, United States (1926 AC)", "country": "United States", "continent": "North America", "domain": 0, "occupation": "Singer", "hpi": 22.15590167}}, {"geometry": {"type": "Point", "coordinates": [11.25, 43.783333]}, "type": "Feature", "properties": {"en_curid": 6991, "name": "Cimabue", "birth": "Florence, Italy (1240 AC)", "country": "Italy", "continent": "Europe", "domain": 0, "occupation": "Artist", "hpi": 26.13020964}}, {"geometry": {"type": "Point", "coordinates": [22.583333, -32.35]}, "type": "Feature", "properties": {"en_curid": 7015, "name": "Christiaan Barnard", "birth": "Beaufort West, South Africa (1922 AC)", "country": "South Africa", "continent": "Africa", "domain": 6, "occupation": "Physician", "hpi": 23.72805741}}, {"geometry": {"type": "Point", "coordinates": [9.183333, 45.466667]}, "type": "Feature", "properties": {"en_curid": 7018, "name": "Caravaggio", "birth": "Milan, Italy (1571 AC)", "country": "Italy", "continent": "Europe", "domain": 0, "occupation": "Painter", "hpi": 28.35786721}}, {"geometry": {"type": "Point", "coordinates": [2.3508, 48.8567]}, "type": "Feature", "properties": {"en_curid": 7019, "name": "Jean-Baptiste-Sim\u00e9on Chardin", "birth": "Paris, France (1699 AC)", "country": "France", "continent": "Europe", "domain": 0, "occupation": "Painter", "hpi": 24.3331093}}, {"geometry": {"type": "Point", "coordinates": [13.033333, 47.8]}, "type": "Feature", "properties": {"en_curid": 7080, "name": "Christian Doppler", "birth": "Salzburg, Austria (1803 AC)", "country": "Austria", "continent": "Europe", "domain": 6, "occupation": "Physicist", "hpi": 24.82849861}}, {"geometry": {"type": "Point", "coordinates": [-2.97, 56.464]}, "type": "Feature", "properties": {"en_curid": 7119, "name": "William Kidd", "birth": "Greenock, United Kingdom (1645 AC)", "country": "United Kingdom", "continent": "Europe", "domain": 5, "occupation": "Pirate", "hpi": 23.76681666}}, {"geometry": {"type": "Point", "coordinates": [4.6278, 43.6767]}, "type": "Feature", "properties": {"en_curid": 7234, "name": "Constantine II", "birth": "Arles, France (316 AC)", "country": "France", "continent": "Europe", "domain": 4, "occupation": "Politician", "hpi": 25.63874828}}, {"geometry": {"type": "Point", "coordinates": [21.9, 43.3]}, "type": "Feature", "properties": {"en_curid": 7236, "name": "Constantine I", "birth": "Ni\u0161, Serbia (272 AC)", "country": "Serbia", "continent": "Europe", "domain": 4, "occupation": "Politician", "hpi": 28.56484978}}, {"geometry": {"type": "Point", "coordinates": [6.894369999999999, 48.4978]}, "type": "Feature", "properties": {"en_curid": 7246, "name": "Charles Messier", "birth": "Badonviller, France (1730 AC)", "country": "France", "continent": "Europe", "domain": 6, "occupation": "Astronomer", "hpi": 24.97442272}}, {"geometry": {"type": "Point", "coordinates": [23.716667, 37.966667]}, "type": "Feature", "properties": {"en_curid": 7342, "name": "Clement of Alexandria", "birth": "Athens, Greece (150 AC)", "country": "Greece", "continent": "Europe", "domain": 3, "occupation": "Philosopher", "hpi": 26.27384576}}, {"geometry": {"type": "Point", "coordinates": [-121.59944399999999, 42.025556]}, "type": "Feature", "properties": {"en_curid": 7345, "name": "Carl Barks", "birth": "Merrill, United States (1901 AC)", "country": "United States", "continent": "North America", "domain": 0, "occupation": "Comic Artist", "hpi": 24.44338831}}, {"geometry": {"type": "Point", "coordinates": [19.166667, 52.533333]}, "type": "Feature", "properties": {"en_curid": 7362, "name": "Casimir III of Poland", "birth": "Kowal, Poland (1310 AC)", "country": "Poland", "continent": "Europe", "domain": 4, "occupation": "Politician", "hpi": 24.92641016}}, {"geometry": {"type": "Point", "coordinates": [29.916666999999997, 31.2]}, "type": "Feature", "properties": {"en_curid": 7383, "name": "Cyril of Alexandria", "birth": "Alexandria, Egypt (378 AC)", "country": "Egypt", "continent": "Africa", "domain": 6, "occupation": "Physician", "hpi": 25.89572229}}, {"geometry": {"type": "Point", "coordinates": [34.891389000000004, 32.5]}, "type": "Feature", "properties": {"en_curid": 7387, "name": "Cyril of Jerusalem", "birth": "Caesarea Palaestina, Israel (313 AC)", "country": "Israel", "continent": "Asia", "domain": 6, "occupation": "Physician", "hpi": 24.25891081}}, {"geometry": {"type": "Point", "coordinates": [-3.4638, 56.0694]}, "type": "Feature", "properties": {"en_curid": 7426, "name": "Charles I of England", "birth": "Dunfermline, United Kingdom (1600 AC)", "country": "United Kingdom", "continent": "Europe", "domain": 4, "occupation": "Politician", "hpi": 25.96794248}}, {"geometry": {"type": "Point", "coordinates": [-64.95, 18.35]}, "type": "Feature", "properties": {"en_curid": 7434, "name": "Camille Pissarro", "birth": "Charlotte Amalie, Us Virgin Islands (1830 AC)", "country": "Us Virgin Islands", "continent": "North America", "domain": 0, "occupation": "Painter", "hpi": 26.20155027}}, {"geometry": {"type": "Point", "coordinates": [11.25, 43.783333]}, "type": "Feature", "properties": {"en_curid": 7437, "name": "Carlo Collodi", "birth": "Florence, Italy (1826 AC)", "country": "Italy", "continent": "Europe", "domain": 3, "occupation": "Writer", "hpi": 24.75302957}}, {"geometry": {"type": "Point", "coordinates": [11.330556, 43.318611]}, "type": "Feature", "properties": {"en_curid": 7471, "name": "Catherine of Siena", "birth": "Siena, Italy (1347 AC)", "country": "Italy", "continent": "Europe", "domain": 4, "occupation": "Religious Figure", "hpi": 25.72697697}}, {"geometry": {"type": "Point", "coordinates": [-2.916667, 56.666667000000004]}, "type": "Feature", "properties": {"en_curid": 7472, "name": "Charles Lyell", "birth": "Angus, United Kingdom (1797 AC)", "country": "United Kingdom", "continent": "Europe", "domain": 6, "occupation": "Geologist", "hpi": 23.69451279}}, {"geometry": {"type": "Point", "coordinates": [-102.0, 23.0]}, "type": "Feature", "properties": {"en_curid": 7478, "name": "Cuauht\u00e9moc", "birth": "Other, Mexico (1495 AC)", "country": "Mexico", "continent": "North America", "domain": 4, "occupation": "Politician", "hpi": 24.50435091}}, {"geometry": {"type": "Point", "coordinates": [12.602778, 42.821111]}, "type": "Feature", "properties": {"en_curid": 7504, "name": "Cesare Borgia", "birth": "Papal States, Italy (1475 AC)", "country": "Italy", "continent": "Europe", "domain": 4, "occupation": "Military Personnel", "hpi": 26.01206983}}, {"geometry": {"type": "Point", "coordinates": [-90.159722, 38.900556]}, "type": "Feature", "properties": {"en_curid": 21189364, "name": "James Earl Ray", "birth": "St. Louis, United States (1928 AC)", "country": "United States", "continent": "North America", "domain": 5, "occupation": "Extremist", "hpi": 22.2322658}}, {"geometry": {"type": "Point", "coordinates": [-111.88333300000001, 40.75]}, "type": "Feature", "properties": {"en_curid": 7550, "name": "Craig Venter", "birth": "Salt Lake City, United States (1946 AC)", "country": "United States", "continent": "North America", "domain": 6, "occupation": "Biologist", "hpi": 20.76109074}}, {"geometry": {"type": "Point", "coordinates": [-87.876428, 41.882923999999996]}, "type": "Feature", "properties": {"en_curid": 300531, "name": "Eugene Andrew Cernan", "birth": "Chicago, United States (1934 AC)", "country": "United States", "continent": "North America", "domain": 2, "occupation": "Astronaut", "hpi": 22.19170891}}, {"geometry": {"type": "Point", "coordinates": [-3.0, 53.4]}, "type": "Feature", "properties": {"en_curid": 7573, "name": "Clive Barker", "birth": "Liverpool, United Kingdom (1952 AC)", "country": "United Kingdom", "continent": "Europe", "domain": 3, "occupation": "Writer", "hpi": 22.40657551}}, {"geometry": {"type": "Point", "coordinates": [12.316667, 45.433333000000005]}, "type": "Feature", "properties": {"en_curid": 7628, "name": "Christine de Pizan", "birth": "Republic of Venice, Italy (1363 AC)", "country": "Italy", "continent": "Europe", "domain": 3, "occupation": "Writer", "hpi": 24.15912554}}, {"geometry": {"type": "Point", "coordinates": [-110.939167, 31.353889000000002]}, "type": "Feature", "properties": {"en_curid": 7668, "name": "Charles Mingus", "birth": "Nogales, United States (1922 AC)", "country": "United States", "continent": "North America", "domain": 0, "occupation": "Musician", "hpi": 23.77632796}}, {"geometry": {"type": "Point", "coordinates": [-83.74583299999999, 36.203056]}, "type": "Feature", "properties": {"en_curid": 7756, "name": "Chet Atkins", "birth": "Luttrell, United States (1924 AC)", "country": "United States", "continent": "North America", "domain": 0, "occupation": "Musician", "hpi": 22.47202725}}, {"geometry": {"type": "Point", "coordinates": [-5.25, 56.25]}, "type": "Feature", "properties": {"en_curid": 7824, "name": "Colin Maclaurin", "birth": "Argyll, United Kingdom (1698 AC)", "country": "United Kingdom", "continent": "Europe", "domain": 6, "occupation": "Mathematician", "hpi": 23.12833057}}, {"geometry": {"type": "Point", "coordinates": [-118.76166699999999, 34.153333]}, "type": "Feature", "properties": {"en_curid": 145532, "name": "Mike Shinoda", "birth": "Los Angeles, United States (1977 AC)", "country": "United States", "continent": "North America", "domain": 0, "occupation": "Musician", "hpi": 19.77591766}}, {"geometry": {"type": "Point", "coordinates": [-85.37944399999999, 38.406667]}, "type": "Feature", "properties": {"en_curid": 7888, "name": "D. W. Griffith", "birth": "La Grange, United States (1875 AC)", "country": "United States", "continent": "North America", "domain": 0, "occupation": "Film Director", "hpi": 24.14268611}}, {"geometry": {"type": "Point", "coordinates": [-114.01166699999999, 46.8625]}, "type": "Feature", "properties": {"en_curid": 7891, "name": "David Lynch", "birth": "Missoula, United States (1946 AC)", "country": "United States", "continent": "North America", "domain": 0, "occupation": "Film Director", "hpi": 25.8755275}}, {"geometry": {"type": "Point", "coordinates": [-79.4, 43.7]}, "type": "Feature", "properties": {"en_curid": 7892, "name": "David Cronenberg", "birth": "Toronto, Canada (1943 AC)", "country": "Canada", "continent": "North America", "domain": 0, "occupation": "Film Director", "hpi": 24.3781673}}, {"geometry": {"type": "Point", "coordinates": [-3.188889, 55.953056000000004]}, "type": "Feature", "properties": {"en_curid": 7925, "name": "David Hume", "birth": "Edinburgh, United Kingdom (1711 AC)", "country": "United Kingdom", "continent": "Europe", "domain": 3, "occupation": "Philosopher", "hpi": 27.81851681}}, {"geometry": {"type": "Point", "coordinates": [-104.881105, 39.76185]}, "type": "Feature", "properties": {"en_curid": 8079, "name": "David Fincher", "birth": "Denver, United States (1962 AC)", "country": "United States", "continent": "North America", "domain": 0, "occupation": "Film Director", "hpi": 21.49678918}}, {"geometry": {"type": "Point", "coordinates": [-122.681944, 45.52]}, "type": "Feature", "properties": {"en_curid": 8081, "name": "Douglas Engelbart", "birth": "Portland, United States (1925 AC)", "country": "United States", "continent": "North America", "domain": 6, "occupation": "Inventor", "hpi": 21.60895714}}, {"geometry": {"type": "Point", "coordinates": [-117.6, 34.15]}, "type": "Feature", "properties": {"en_curid": 1004027, "name": "Carlos Bocanegra", "birth": "Los Angeles, United States (1979 AC)", "country": "United States", "continent": "North America", "domain": 7, "occupation": "Soccer Player", "hpi": 15.27393892}}, {"geometry": {"type": "Point", "coordinates": [0.11900000000000001, 52.205]}, "type": "Feature", "properties": {"en_curid": 8091, "name": "Douglas Adams", "birth": "Cambridge, United Kingdom (1952 AC)", "country": "United Kingdom", "continent": "Europe", "domain": 3, "occupation": "Writer", "hpi": 21.98686301}}, {"geometry": {"type": "Point", "coordinates": [-87.95, 43.05]}, "type": "Feature", "properties": {"en_curid": 8095, "name": "Donald Knuth", "birth": "Milwaukee, United States (1938 AC)", "country": "United States", "continent": "North America", "domain": 6, "occupation": "Computer Scientist", "hpi": 24.54145934}}, {"geometry": {"type": "Point", "coordinates": [-80.814444, 41.238333000000004]}, "type": "Feature", "properties": {"en_curid": 8099, "name": "Dave Grohl", "birth": "Warren, United States (1969 AC)", "country": "United States", "continent": "North America", "domain": 0, "occupation": "Musician", "hpi": 21.25084741}}, {"geometry": {"type": "Point", "coordinates": [13.466667000000001, 45.916667]}, "type": "Feature", "properties": {"en_curid": 8138, "name": "Dino Zoff", "birth": "Mariano del Friuli, Italy (1942 AC)", "country": "Italy", "continent": "Europe", "domain": 7, "occupation": "Coach", "hpi": 24.55574031}}, {"geometry": {"type": "Point", "coordinates": [11.25, 43.783333]}, "type": "Feature", "properties": {"en_curid": 8169, "name": "Dante Alighieri", "birth": "Florence, Italy (1265 AC)", "country": "Italy", "continent": "Europe", "domain": 3, "occupation": "Writer", "hpi": 30.14960983}}, {"geometry": {"type": "Point", "coordinates": [-117.88972199999999, 33.836110999999995]}, "type": "Feature", "properties": {"en_curid": 173691, "name": "Jeff Buckley", "birth": "Los Angeles, United States (1966 AC)", "country": "United States", "continent": "North America", "domain": 0, "occupation": "Musician", "hpi": 21.56450404}}, {"geometry": {"type": "Point", "coordinates": [-96.5575, 33.749722]}, "type": "Feature", "properties": {"en_curid": 8182, "name": "Dwight D. Eisenhower", "birth": "Denison, United States (1890 AC)", "country": "United States", "continent": "North America", "domain": 4, "occupation": "Politician", "hpi": 26.68474347}}, {"geometry": {"type": "Point", "coordinates": [-0.1275, 51.507222]}, "type": "Feature", "properties": {"en_curid": 8193, "name": "Daniel Defoe", "birth": "London, United Kingdom (1660 AC)", "country": "United Kingdom", "continent": "Europe", "domain": 3, "occupation": "Writer", "hpi": 27.47429344}}, {"geometry": {"type": "Point", "coordinates": [5.3339, 47.8633]}, "type": "Feature", "properties": {"en_curid": 8199, "name": "Denis Diderot", "birth": "Langres, France (1713 AC)", "country": "France", "continent": "Europe", "domain": 3, "occupation": "Writer", "hpi": 27.41478565}}, {"geometry": {"type": "Point", "coordinates": [106.64138899999999, 30.474166999999998]}, "type": "Feature", "properties": {"en_curid": 8205, "name": "Deng Xiaoping", "birth": "Guang'an, China (1904 AC)", "country": "China", "continent": "Asia", "domain": 4, "occupation": "Politician", "hpi": 25.98910525}}, {"geometry": {"type": "Point", "coordinates": [24.983333, 40.95]}, "type": "Feature", "properties": {"en_curid": 8211, "name": "Democritus", "birth": "Abdera, Greece (460 BC)", "country": "Greece", "continent": "Europe", "domain": 3, "occupation": "Philosopher", "hpi": 28.73319286}}, {"geometry": {"type": "Point", "coordinates": [-73.904167, 40.774444]}, "type": "Feature", "properties": {"en_curid": 391213, "name": "Patrick McGoohan", "birth": "New York, United States (1928 AC)", "country": "United States", "continent": "North America", "domain": 0, "occupation": "Actor", "hpi": 21.64407284}}, {"geometry": {"type": "Point", "coordinates": [-84.516667, 39.1]}, "type": "Feature", "properties": {"en_curid": 8300, "name": "Doris Day", "birth": "Cincinnati, United States (1924 AC)", "country": "United States", "continent": "North America", "domain": 0, "occupation": "Actor", "hpi": 24.61673789}}, {"geometry": {"type": "Point", "coordinates": [20.516667, 54.716667]}, "type": "Feature", "properties": {"en_curid": 8302, "name": "David Hilbert", "birth": "Kaliningrad, Russia (1862 AC)", "country": "Russia", "continent": "Europe", "domain": 6, "occupation": "Mathematician", "hpi": 26.13198882}}, {"geometry": {"type": "Point", "coordinates": [-86.148, 39.791]}, "type": "Feature", "properties": {"en_curid": 8340, "name": "David Letterman", "birth": "Indianapolis, United States (1947 AC)", "country": "United States", "continent": "North America", "domain": 5, "occupation": "Presenter", "hpi": 21.61187101}}, {"geometry": {"type": "Point", "coordinates": [-3.712222, 38.887778000000004]}, "type": "Feature", "properties": {"en_curid": 8362, "name": "Diego de Almagro", "birth": "Almagro, Spain (1475 AC)", "country": "Spain", "continent": "Europe", "domain": 2, "occupation": "Explorer", "hpi": 24.15200808}}, {"geometry": {"type": "Point", "coordinates": [-117.88972199999999, 33.836110999999995]}, "type": "Feature", "properties": {"en_curid": 284527, "name": "Leo Fender", "birth": "Los Angeles, United States (1909 AC)", "country": "United States", "continent": "North America", "domain": 6, "occupation": "Inventor", "hpi": 23.08840923}}, {"geometry": {"type": "Point", "coordinates": [0.0, -75.0]}, "type": "Feature", "properties": {"en_curid": 8467, "name": "Draco", "birth": "Other, Unknown (650 BC)", "country": "Unknown", "continent": "Unknown", "domain": 4, "occupation": "Public Worker", "hpi": 26.72469985}}, {"geometry": {"type": "Point", "coordinates": [-0.1275, 51.507222]}, "type": "Feature", "properties": {"en_curid": 8470, "name": "David Ricardo", "birth": "London, United Kingdom (1772 AC)", "country": "United Kingdom", "continent": "Europe", "domain": 6, "occupation": "Economist", "hpi": 26.69455101}}, {"geometry": {"type": "Point", "coordinates": [-6.259722, 53.347778000000005]},